opeid,stateabv,state,county,city,name,address,zipcode,zipext,proglength,schooltype,year1,num1,denom1,drate1,prate1,ethniccode,congdis,region,averageorgreaterthan30,year2,num2,denom2,drate2,prate2,year3,num3,denom3,drate3,prate3,lat,lng,population,density,military,agemedian,male,female,married,familysize,incomehouseholdmedian,incomehouseholdsixfigure,homeownership,homevalue,rentmedian,educationcollegeorabove,laborforceparticipation,unemploymentrate,racewhite,raceblack,raceasian,racenative,racepacific,raceother,racemultiple
1003,AL,Alabama,Montgomery,Montgomery,FAULKNER UNIVERSITY                                              ,5345 ATLANTA HIGHWAY                              ,36109,3398,8,2,2016,172,1371,12.5,A,5,2,4,0,2015,180.0,1471.0,12.2,A,2014,192.0,1470.0,13.0,A,32.3473,-86.2666,255908.0,481.0,False,35.0,47.1,52.9,37.1,3.16,44339.0,17.7,56.0,116695.0,865.0,31.8,61.8,7.9,34.1,60.0,2.5,0.2,0.0,1.3,1.9
1004,AL,Alabama,Shelby,Montevallo,UNIVERSITY OF MONTEVALLO                                         ,PALMER CIRCLE                                     ,35115,6000,8,1,2016,56,757,7.3,A,5,6,4,0,2015,72.0,784.0,9.1,A,2014,64.0,793.0,8.0,A,33.1254,-86.8482,6636.0,204.0,False,27.9,44.7,55.3,32.7,3.32,37929.0,11.8,56.6,160842.0,649.0,26.6,57.9,10.8,71.4,23.0,0.5,0.0,0.2,3.4,1.5
1005,AL,Alabama,Montgomery,Montgomery,ALABAMA STATE UNIVERSITY                                         ,915 SOUTH JACKSON STREET                          ,36104,5714,8,1,2016,382,1874,20.3,P,2,3,4,0,2015,466.0,2208.0,21.1,P,2014,471.0,2419.0,19.4,P,32.3473,-86.2666,255908.0,481.0,False,35.0,47.1,52.9,37.1,3.16,44339.0,17.7,56.0,116695.0,865.0,31.8,61.8,7.9,34.1,60.0,2.5,0.2,0.0,1.3,1.9
1007,AL,Alabama,Tallapoosa,Alexander City,CENTRAL ALABAMA COMMUNITY COLLEGE                                ,1675 CHEROKEE ROAD                                ,35010,0,5,1,2016,92,468,19.6,P,5,3,4,0,2015,131.0,579.0,22.6,P,2014,184.0,674.0,27.2,P,32.9242,-85.9361,9222.0,134.0,False,39.4,45.7,54.3,44.7,2.95,32337.0,9.6,57.5,103175.0,561.0,15.5,51.0,11.6,59.3,35.8,1.0,0.3,0.0,2.8,0.8
1008,AL,Alabama,Limestone,Athens,ATHENS STATE UNIVERSITY                                          ,300 NORTH BEATY STREET                            ,35611,1999,8,1,2016,67,893,7.5,A,5,5,4,0,2015,66.0,924.0,7.1,A,2014,49.0,901.0,5.4,A,34.7847,-86.95100000000001,29192.0,248.0,False,40.4,48.3,51.7,46.5,3.33,47741.0,22.8,64.8,143275.0,785.0,27.0,58.6,8.8,76.4,16.4,1.6,1.3,0.3,1.7,2.4
1009,AL,Alabama,Lee,Auburn,AUBURN UNIVERSITY                                                ,107 SAMFORD HALL                                  ,36849,5113,8,1,2016,134,3670,3.6,P,5,3,4,0,2015,114.0,3750.0,3.0,P,2014,139.0,3676.0,3.7,P,32.6087,-85.4899,89577.0,410.0,False,24.1,49.6,50.4,34.1,3.09,42600.0,24.5,44.0,236281.0,1171.0,58.1,57.8,5.3,71.9,17.5,7.7,0.1,0.0,1.7,1.0
1012,AL,Alabama,Jefferson,Birmingham,BIRMINGHAM-SOUTHERN COLLEGE                                      ,900 ARKADELPHIA ROAD                              ,35254,2,6,2,2016,10,205,4.8,A,5,7,4,0,2015,15.0,227.0,6.6,A,2014,11.0,250.0,4.4,A,33.5277,-86.7987,744189.0,556.0,False,35.7,47.3,52.7,27.9,3.11,33770.0,10.2,46.1,87783.0,776.0,25.7,60.2,10.7,24.6,71.6,0.8,0.2,0.0,1.5,1.3
1015,AL,Alabama,Coffee,Enterprise,ENTERPRISE STATE COMMUNITY COLLEGE                               ,600 PLAZA DRIVE                                   ,36331,1300,5,1,2016,58,323,17.9,A,5,2,4,0,2015,79.0,377.0,20.9,A,2014,109.0,490.0,22.2,A,31.3276,-85.8459,38737.0,356.0,False,37.3,48.5,51.5,51.8,3.18,54304.0,23.4,57.5,171948.0,850.0,29.1,63.0,5.9,72.1,21.7,1.7,0.5,0.0,0.9,3.0
1016,AL,Alabama,Lauderdale,Florence,UNIVERSITY OF NORTH ALABAMA                                      ,ONE HARRISON PLAZA                                ,35632,1,8,1,2016,170,1463,11.6,A,5,5,4,0,2015,149.0,1547.0,9.6,A,2014,176.0,1539.0,11.4,A,34.8303,-87.6654,78112.0,581.0,False,37.1,46.7,53.3,39.6,2.89,37843.0,10.7,54.4,125656.0,672.0,27.1,55.1,6.4,78.0,18.8,0.6,0.3,0.1,0.3,1.8
1019,AL,Alabama,Montgomery,Montgomery,HUNTINGDON COLLEGE                                               ,1500 EAST FAIRVIEW AVENUE                         ,36106,2148,6,2,2016,37,375,9.8,A,5,2,4,0,2015,39.0,360.0,10.8,A,2014,52.0,413.0,12.5,A,32.3473,-86.2666,255908.0,481.0,False,35.0,47.1,52.9,37.1,3.16,44339.0,17.7,56.0,116695.0,865.0,31.8,61.8,7.9,34.1,60.0,2.5,0.2,0.0,1.3,1.9
1020,AL,Alabama,Calhoun,Jacksonville,JACKSONVILLE STATE UNIVERSITY                                    ,"700 PELHAM ROAD, NORTH                            ",36265,1602,8,1,2016,212,2157,9.8,A,5,3,4,0,2015,292.0,2454.0,11.8,A,2014,272.0,2393.0,11.3,A,33.8088,-85.7544,12612.0,444.0,False,26.7,47.5,52.5,29.7,3.12,40012.0,14.8,49.4,147232.0,796.0,32.8,56.3,13.1,71.7,23.5,1.4,0.1,0.0,0.5,2.8
1022,AL,Alabama,Jefferson,Birmingham,JEFFERSON STATE COMMUNITY COLLEGE                                ,2601 CARSON ROAD                                  ,35215,3098,5,1,2016,189,1360,13.8,A,5,7,4,0,2015,205.0,1568.0,13.0,A,2014,222.0,1588.0,13.9,A,33.5277,-86.7987,744189.0,556.0,False,35.7,47.3,52.7,27.9,3.11,33770.0,10.2,46.1,87783.0,776.0,25.7,60.2,10.7,24.6,71.6,0.8,0.2,0.0,1.5,1.3
1023,AL,Alabama,Perry,Marion,JUDSON COLLEGE                                                   ,302 BIBB STREET                                   ,36756,2504,6,2,2016,19,107,17.7,A,5,7,4,0,2015,21.0,132.0,15.9,A,2014,17.0,121.0,14.0,A,32.6318,-87.3172,3314.0,121.0,False,22.7,45.3,54.7,15.9,5.32,22839.0,3.2,73.9,95760.0,431.0,17.7,36.2,11.1,38.7,60.1,0.7,0.2,0.0,0.4,0.0
1024,AL,Alabama,Sumter,Livingston,UNIVERSITY OF WEST ALABAMA                                       ,205 NORTH WASHINGTON                              ,35470,0,8,1,2016,131,1662,7.8,A,5,7,4,0,2015,149.0,1889.0,7.8,A,2014,181.0,2124.0,8.5,A,32.5982,-88.1891,3333.0,180.0,False,23.0,43.3,56.7,26.4,3.24,13272.0,8.4,34.9,145273.0,525.0,30.4,41.6,19.5,41.7,46.8,11.5,0.0,0.0,0.0,0.0
1026,AL,Alabama,Perry,Marion,MARION MILITARY INSTITUTE                                        ,1101 WASHINGTON STREET                            ,36756,3214,5,1,2016,15,161,9.3,A,5,7,4,0,2015,22.0,204.0,10.7,A,2014,18.0,173.0,10.4,A,32.6318,-87.3172,3314.0,121.0,False,22.7,45.3,54.7,15.9,5.32,22839.0,3.2,73.9,95760.0,431.0,17.7,36.2,11.1,38.7,60.1,0.7,0.2,0.0,0.4,0.0
1028,AL,Alabama,Jefferson,Fairfield,MILES COLLEGE                                                    ,5500 MYRON MASSEY BOULEVARD                       ,35064,2697,6,2,2016,87,781,11.1,A,2,7,4,0,2015,87.0,774.0,11.2,A,2014,94.0,833.0,11.2,A,33.4747,-86.9194,10683.0,1188.0,False,36.8,41.2,58.8,25.9,3.19,36211.0,8.3,58.4,96135.0,832.0,17.7,56.8,12.3,5.1,91.7,0.0,0.3,0.0,0.0,2.8
1029,AL,Alabama,Mobile,Mobile,UNIVERSITY OF MOBILE                                             ,5735 COLLEGE PARKWAY                              ,36663,220,8,2,2016,58,601,9.6,A,5,1,4,0,2015,39.0,574.0,6.7,A,2014,42.0,574.0,7.3,A,30.6782,-88.1163,318084.0,526.0,False,36.7,47.7,52.3,37.1,3.26,40020.0,15.7,55.7,119685.0,847.0,28.1,57.2,7.9,45.4,50.4,1.7,0.1,0.0,0.7,1.8
1031,AL,Alabama,DeKalb,Rainsville,NORTHEAST ALABAMA COMMUNITY COLLEGE                              ,138  HIGHWAY 35                    138  ALABAMA HI,35986,159,5,1,2016,36,297,12.1,A,5,4,4,0,2015,50.0,330.0,15.1,A,2014,80.0,414.0,19.3,A,34.4939,-85.8435,5038.0,94.0,False,42.2,47.3,52.7,51.1,3.09,37808.0,10.4,68.9,117939.0,637.0,9.3,51.3,6.9,92.3,0.6,0.0,0.3,0.0,3.3,3.6
1033,AL,Alabama,Madison,Huntsville,OAKWOOD UNIVERSITY                                               ,"7000 ADVENTIST BOULEVARD, NORTHWEST               ",35896,1,8,2,2016,65,620,10.4,A,2,5,4,0,2015,85.0,616.0,13.7,A,2014,90.0,609.0,14.7,A,34.6988,-86.6412,309716.0,350.0,False,36.9,48.3,51.7,43.9,2.96,51926.0,25.4,57.9,169541.0,880.0,41.6,62.7,7.3,62.3,30.8,2.6,0.3,0.1,1.3,2.5
1036,AL,Alabama,Jefferson,Birmingham,SAMFORD UNIVERSITY                                               ,800 LAKESHORE DRIVE                               ,35229,7000,8,2,2016,24,818,2.9,A,5,6,4,0,2015,18.0,914.0,1.9,A,2014,20.0,932.0,2.1,A,33.5277,-86.7987,744189.0,556.0,False,35.7,47.3,52.7,27.9,3.11,33770.0,10.2,46.1,87783.0,776.0,25.7,60.2,10.7,24.6,71.6,0.8,0.2,0.0,1.5,1.3
1038,AL,Alabama,Marshall,Boaz,SNEAD STATE COMMUNITY COLLEGE                                    ,220 NORTH WALNUT STREET                           ,35957,734,5,1,2016,89,433,20.5,A,5,4,4,0,2015,102.0,394.0,25.8,A,2014,112.0,372.0,30.1,A,34.1985,-86.1529,9652.0,256.0,False,36.8,51.2,48.8,47.9,3.22,41488.0,11.1,64.6,110853.0,795.0,18.5,56.2,6.1,95.7,2.1,0.4,0.0,0.0,0.3,1.4
1040,AL,Alabama,Randolph,Wadley,SOUTHERN UNION STATE COMMUNITY COLLEGE                           ,750 ROBERTS STREET                                ,36276,0,5,1,2016,136,837,16.2,P,5,3,4,0,2015,153.0,915.0,16.7,P,2014,189.0,1016.0,18.6,P,33.1239,-85.5683,715.0,189.0,False,20.9,46.2,53.8,34.6,3.7,26731.0,3.5,54.5,82181.0,530.0,10.6,41.5,22.8,63.8,31.9,0.0,0.0,0.0,0.0,4.3
1041,AL,Alabama,Mobile,Mobile,SPRING HILL COLLEGE                                              ,4000 DAUPHIN STREET                               ,36608,1791,8,2,2016,22,367,5.9,A,5,1,4,0,2015,23.0,369.0,6.2,A,2014,27.0,382.0,7.0,A,30.6782,-88.1163,318084.0,526.0,False,36.7,47.7,52.3,37.1,3.26,40020.0,15.7,55.7,119685.0,847.0,28.1,57.2,7.9,45.4,50.4,1.7,0.1,0.0,0.7,1.8
1044,AL,Alabama,Tuscaloosa,Tuscaloosa,STILLMAN COLLEGE                                                 ,3601 STILLMAN BOULEVARD                           ,35401,1430,6,2,2016,86,371,23.1,A,2,7,4,0,2015,93.0,406.0,22.9,A,2014,99.0,438.0,22.6,A,33.2348,-87.5266,154204.0,627.0,False,28.6,47.8,52.2,31.9,3.21,42428.0,16.9,47.2,172114.0,984.0,36.5,55.0,8.2,51.0,44.2,2.5,0.2,0.1,0.9,1.1
1046,AL,Alabama,Talladega,Talladega,TALLADEGA COLLEGE                                                ,627 WEST BATTLE STREET                            ,35160,2354,6,2,2016,80,339,23.5,A,2,3,4,0,2015,80.0,250.0,32.0,A,2014,142.0,503.0,28.2,A,33.4329,-86.0976,13277.0,233.0,False,39.4,49.3,50.7,30.5,2.94,29755.0,7.9,55.5,84354.0,579.0,12.1,44.9,17.9,47.7,48.1,1.2,0.4,0.0,1.6,1.1
1047,AL,Alabama,Pike,Troy,TROY UNIVERSITY                                                  ,UNIVERSITY AVENUE                  ADAMS ADMINISTR,36082,1,8,1,2016,562,5683,9.8,P,5,2,4,0,2015,747.0,7139.0,10.4,P,2014,840.0,7314.0,11.4,P,31.8021,-85.9665,16782.0,260.0,False,25.8,46.7,53.3,29.9,3.22,30538.0,13.1,48.0,138183.0,707.0,33.2,59.5,8.7,52.0,41.4,3.6,0.5,0.0,0.1,2.3
1050,AL,Alabama,Macon,Tuskegee Institute,TUSKEGEE UNIVERSITY                                              ,308 KRESGE CENTER                                 ,36088,1645,8,2,2016,115,850,13.5,P,2,3,4,0,2015,101.0,876.0,11.5,P,2014,93.0,806.0,11.5,P,32.41685,-85.71784,4802.0,549.6,False,21.7,41.7,58.3,12.2,3.05,27743.0,9.3,42.3,80791.0,645.0,26.0,50.7,16.7,1.2,97.4,1.0,0.2,0.0,0.0,0.1
1051,AL,Alabama,Tuscaloosa,Tuscaloosa,UNIVERSITY OF ALABAMA                                            ,801 UNIVERSITY BOULEVARD           ROSE ADMINISTRA,35487,120,8,1,2016,288,5573,5.1,P,5,7,4,0,2015,306.0,5814.0,5.2,P,2014,312.0,5433.0,5.7,P,33.2348,-87.5266,154204.0,627.0,False,28.6,47.8,52.2,31.9,3.21,42428.0,16.9,47.2,172114.0,984.0,36.5,55.0,8.2,51.0,44.2,2.5,0.2,0.1,0.9,1.1
1052,AL,Alabama,Jefferson,Birmingham,UNIVERSITY OF ALABAMA AT BIRMINGHAM                              ,1720 2ND AVENUE SOUTH              LISTER HILL LIB,35294,1150,8,1,2016,237,4135,5.7,P,5,7,4,0,2015,253.0,4250.0,5.9,P,2014,241.0,4224.0,5.7,P,33.5277,-86.7987,744189.0,556.0,False,35.7,47.3,52.7,27.9,3.11,33770.0,10.2,46.1,87783.0,776.0,25.7,60.2,10.7,24.6,71.6,0.8,0.2,0.0,1.5,1.3
1055,AL,Alabama,Madison,Huntsville,UNIVERSITY OF ALABAMA IN HUNTSVILLE                              ,212 UNIVERSITY CENTER                             ,35899,1,8,1,2016,86,1447,5.9,A,5,5,4,0,2015,111.0,1491.0,7.4,A,2014,82.0,1511.0,5.4,A,34.6988,-86.6412,309716.0,350.0,False,36.9,48.3,51.7,43.9,2.96,51926.0,25.4,57.9,169541.0,880.0,41.6,62.7,7.3,62.3,30.8,2.6,0.3,0.1,1.3,2.5
1057,AL,Alabama,Mobile,Mobile,UNIVERSITY OF SOUTH ALABAMA                                      ,307 UNIVERSITY BOULEVARD NORTH                    ,36688,2,8,1,2016,325,3836,8.4,P,5,1,4,0,2015,333.0,3955.0,8.4,P,2014,311.0,3809.0,8.1,P,30.6782,-88.1163,318084.0,526.0,False,36.7,47.7,52.3,37.1,3.26,40020.0,15.7,55.7,119685.0,847.0,28.1,57.2,7.9,45.4,50.4,1.7,0.1,0.0,0.7,1.8
1060,AL,Alabama,Baldwin,Bay Minette,COASTAL ALABAMA COMMUNITY COLLEGE                                ,1900 HIGHWAY 31 SOUTH                             ,36507,2698,5,1,2016,213,1202,17.7,P,5,1,4,0,2015,250.0,1345.0,18.5,P,2014,274.0,1363.0,20.1,P,30.893,-87.7912,8532.0,205.0,False,32.7,51.6,48.4,35.2,3.96,31310.0,11.7,49.2,124313.0,697.0,15.5,47.7,5.0,54.9,41.5,0.4,0.4,0.0,1.5,1.4
1061,AK,Alaska,Anchorage,Anchorage,ALASKA PACIFIC UNIVERSITY                                        ,4101 UNIVERSITY DRIVE                             ,99508,4672,8,2,2016,7,139,5.0,A,5,AL      ,10,0,2015,15.0,192.0,7.8,A,2014,9.0,169.0,5.3,A,61.1508,-149.1091,253421.0,66.0,False,33.1,51.1,48.9,48.9,3.27,82271.0,40.4,60.1,304137.0,1702.0,34.6,73.5,5.8,63.7,5.5,9.3,7.3,2.4,2.2,9.7
1063,AK,Alaska,Fairbanks North Star,Fairbanks,UNIVERSITY OF ALASKA FAIRBANKS                                   ,"3RD FLOOR, SIGNER'S HALL                          ",99775,7500,8,1,2016,134,1241,10.7,P,5,AL      ,10,0,2015,164.0,1341.0,12.2,P,2014,162.0,1304.0,12.4,P,64.8353,-147.6534,64732.0,384.0,False,28.1,53.9,46.1,46.5,3.23,60658.0,26.2,36.6,198767.0,1418.0,26.3,72.9,9.4,65.3,8.3,5.0,8.7,1.3,1.9,9.5
1065,AK,Alaska,Juneau,Juneau,UNIVERSITY OF ALASKA SOUTHEAST                                   ,11066 AUKE LAKE WAY                               ,99801,8680,8,1,2016,38,385,9.8,P,5,AL      ,10,0,2015,50.0,400.0,12.5,P,2014,42.0,446.0,9.4,P,58.4546,-134.1739,25180.0,4.0,False,38.0,51.4,48.6,51.4,3.12,90749.0,44.9,65.5,342464.0,1759.0,40.3,73.1,4.8,68.9,1.1,7.3,11.1,1.0,1.3,9.3
1071,AZ,Arizona,Yuma,Yuma,ARIZONA WESTERN COLLEGE                                          ,2020 SOUTH AVENUE 8E               FINANCIAL AID O,85365,8847,5,1,2016,52,284,18.3,A,3,7,9,0,2015,79.0,355.0,22.2,A,2014,67.0,390.0,17.1,A,32.5991,-114.5488,138802.0,304.0,False,31.5,51.0,49.0,52.2,3.19,46151.0,15.5,59.9,125590.0,931.0,17.4,61.7,10.1,70.7,3.4,1.9,1.0,0.0,19.2,3.8
1072,AZ,Arizona,Cochise,Sierra Vista,COCHISE COLLEGE                                                  ,901 NORTH COLOMBO                                 ,85635,2317,5,1,2016,16,235,6.8,A,3,8,9,0,2015,21.0,293.0,7.1,A,2014,16.0,262.0,6.1,A,31.563000000000002,-110.3153,51571.0,108.0,False,34.3,48.3,51.7,56.2,2.92,58839.0,23.4,55.2,180958.0,1015.0,30.7,60.7,7.2,77.6,6.8,4.0,1.3,0.8,3.0,6.6
1074,AZ,Arizona,Maricopa,Phoenix,GRAND CANYON UNIVERSITY                                          ,3300 WEST CAMELBACK ROAD                          ,85017,3030,8,3,2016,1772,31482,5.6,A,5,4,9,0,2015,1840.0,29752.0,6.1,A,2014,2277.0,26545.0,8.5,A,33.5722,-112.0891,4081849.0,1212.0,False,33.3,49.8,50.2,41.9,3.58,52080.0,22.1,53.4,197489.0,1119.0,27.8,66.2,6.9,71.9,6.9,3.6,2.0,0.2,11.7,3.7
1076,AZ,Arizona,Maricopa,Glendale,GLENDALE COMMUNITY COLLEGE                                       ,6000 WEST OLIVE AVENUE                            ,85302,3090,5,1,2016,411,2533,16.2,A,5,2,9,0,2015,551.0,2857.0,19.2,A,2014,715.0,3495.0,20.4,A,33.5797,-112.2258,246709.0,1601.0,False,33.9,49.0,51.0,43.1,3.56,49383.0,20.3,54.2,180347.0,1082.0,21.4,62.5,6.3,78.2,6.2,4.3,1.6,0.2,5.3,4.2
1077,AZ,Arizona,Maricopa,Mesa,MESA COMMUNITY COLLEGE                                           ,1833 WEST SOUTHERN AVENUE                         ,85202,4866,5,1,2016,600,3578,16.7,A,5,5,9,0,2015,790.0,4152.0,19.0,A,2014,1152.0,5033.0,22.8,A,33.4017,-111.7181,496401.0,1388.0,False,35.9,49.4,50.6,47.7,3.33,52155.0,20.7,60.2,182782.0,1023.0,26.1,63.3,6.0,83.8,3.7,2.0,2.3,0.4,4.7,3.1
1078,AZ,Arizona,Maricopa,Phoenix,PHOENIX COLLEGE                                                  ,1202 WEST THOMAS ROAD                             ,85013,4234,5,1,2016,374,2096,17.8,A,3,4,9,0,2015,519.0,2434.0,21.3,A,2014,975.0,3145.0,31.0,A,33.5722,-112.0891,4081849.0,1212.0,False,33.3,49.8,50.2,41.9,3.58,52080.0,22.1,53.4,197489.0,1119.0,27.8,66.2,6.9,71.9,6.9,3.6,2.0,0.2,11.7,3.7
1079,AZ,Arizona,Yavapai,Prescott,YAVAPAI COLLEGE                                                  ,1100 EAST SHELDON STREET                          ,86301,3297,5,1,2016,155,689,22.4,A,5,1,9,0,2015,172.0,842.0,20.4,A,2014,197.0,771.0,25.5,A,34.585,-112.4475,42731.0,367.0,False,56.6,48.7,51.3,52.7,2.62,50812.0,20.6,65.8,302425.0,768.0,38.1,43.0,7.7,93.0,0.6,1.4,1.1,0.1,1.4,2.5
1081,AZ,Arizona,Maricopa,Tempe,ARIZONA STATE UNIVERSITY                                         ,FINANCIAL AID & SCHOLARSHIP SRVCS  1151 SOUTH FORE,85287,412,8,1,2016,1206,19181,6.2,A,5,5,9,0,2015,1210.0,18571.0,6.5,A,2014,1175.0,17420.0,6.7,A,33.3881,-111.9318,185038.0,1787.0,False,28.8,52.7,47.3,30.4,3.14,51829.0,21.8,40.1,235701.0,1062.0,43.6,69.2,5.5,68.7,6.5,7.9,2.4,0.4,10.0,4.0
1082,AZ,Arizona,Coconino,Flagstaff,NORTHERN ARIZONA UNIVERSITY                                      ,"GAMMAGE, BUILDING #1 KNOLES DRIVE  ROOM 209       ",86011,1,8,1,2016,448,6735,6.6,A,5,1,9,0,2015,527.0,7067.0,7.4,A,2014,509.0,6999.0,7.2,A,35.1872,-111.6195,78628.0,420.0,False,25.1,49.4,50.6,32.0,3.04,51758.0,22.0,45.4,294858.0,1250.0,45.2,67.5,7.7,77.3,2.5,2.7,8.6,0.2,4.1,4.6
1083,AZ,Arizona,Pima,Tucson,UNIVERSITY OF ARIZONA (THE)                                      ,PO BOX 210066                      ADMINISTRATION ,85721,66,8,1,2016,429,7127,6.0,P,5,7,9,0,2015,414.0,7084.0,5.8,P,2014,449.0,6686.0,6.7,P,32.1545,-110.8782,868391.0,868.0,False,33.4,49.8,50.2,35.8,3.15,39617.0,12.3,49.3,134993.0,875.0,26.6,61.8,9.4,73.1,5.0,3.1,3.2,0.2,10.6,4.9
1085,AR,Arkansas,Drew,Monticello,UNIVERSITY OF ARKANSAS AT MONTICELLO                             ,140 UNIVERSITY DRIVE                              ,71656,0,8,1,2016,160,1106,14.4,P,5,4,6,0,2015,220.0,1234.0,17.8,P,2014,244.0,1248.0,19.5,P,33.6258,-91.7934,9665.0,341.0,False,30.0,48.2,51.8,38.8,3.03,31078.0,6.7,55.7,94852.0,537.0,22.5,55.3,11.2,59.2,38.6,0.0,0.0,0.0,1.2,1.0
1086,AR,Arkansas,Jefferson,Pine Bluff,UNIVERSITY OF ARKANSAS AT PINE BLUFF                             ,1200 NORTH UNIVERSITY DRIVE                       ,71601,2790,8,1,2016,139,803,17.3,A,2,4,6,0,2015,136.0,959.0,14.1,A,2014,185.0,1036.0,17.8,A,34.2116,-92.0178,46850.0,379.0,False,34.8,47.5,52.5,34.1,3.2,32498.0,8.2,54.6,72022.0,630.0,17.9,52.4,13.2,19.7,77.7,0.7,0.1,0.0,0.9,0.9
1087,AR,Arkansas,Pulaski,Little Rock,ARKANSAS BAPTIST COLLEGE                                         ,1600 DOCTOR MARTIN L. KING DRIVE                  ,72202,6099,6,2,2016,238,668,35.6,A,2,2,6,0,2015,174.0,523.0,33.2,A,2014,93.0,406.0,22.9,A,34.7255,-92.35799999999999,442699.0,643.0,False,36.0,48.1,51.9,41.2,3.22,48463.0,22.3,56.2,159269.0,995.0,40.4,65.0,5.0,50.8,41.6,3.1,0.2,0.1,1.7,2.6
1088,AR,Arkansas,Independence,Batesville,LYON COLLEGE                                                     ,2300 HIGHLAND ROAD                                ,72501,3699,6,2,2016,20,175,11.4,A,5,1,6,0,2015,15.0,194.0,7.7,A,2014,16.0,201.0,7.9,A,35.7687,-91.6226,12050.0,357.0,False,37.3,50.0,50.0,45.7,2.95,43049.0,16.5,62.5,114471.0,754.0,26.7,57.8,5.6,85.9,4.2,1.6,0.1,0.0,5.5,2.7
1089,AR,Arkansas,Pope,Russellville,ARKANSAS TECH UNIVERSITY                                         ,215 WEST O STREET                                 ,72801,2222,8,1,2016,249,2719,9.1,P,5,3,6,0,2015,295.0,2731.0,10.8,P,2014,268.0,2755.0,9.7,P,35.2763,-93.1383,34373.0,399.0,False,27.8,49.2,50.8,38.1,3.18,35295.0,11.1,46.7,137128.0,632.0,26.7,59.6,9.3,86.2,5.9,1.8,0.4,0.0,2.7,3.1
1090,AR,Arkansas,Craighead,Jonesboro,ARKANSAS STATE UNIVERSITY                                        ,2105 AGGIE ROAD                                   ,72401,0,8,1,2016,245,4117,5.9,P,5,1,6,0,2015,297.0,4507.0,6.5,P,2014,319.0,4472.0,7.1,P,35.8211,-90.6793,73788.0,366.0,False,32.4,48.2,51.8,43.1,3.04,44171.0,17.0,52.9,145736.0,832.0,30.8,63.1,6.4,72.8,18.7,1.6,0.7,0.2,2.5,3.4
1091,AR,Arkansas,White,Beebe,ARKANSAS STATE UNIVERSITY - BEEBE                                ,1000 IOWA STREET                                  ,72012,1000,5,1,2016,33,411,8.0,P,5,2,6,0,2015,57.0,436.0,13.0,P,2014,83.0,593.0,13.9,P,35.0714,-91.8998,7477.0,311.0,False,34.1,45.8,54.2,50.3,3.26,48068.0,16.3,55.1,125875.0,796.0,25.1,59.9,7.7,92.9,6.0,0.0,0.0,0.0,0.0,1.1
1092,AR,Arkansas,Faulkner,Conway,UNIVERSITY OF CENTRAL ARKANSAS                                   ,201 DONAGHEY AVENUE                               ,72035,1,8,1,2016,208,2750,7.5,A,5,2,6,0,2015,228.0,2796.0,8.1,A,2014,232.0,2615.0,8.8,A,35.0753,-92.4695,72894.0,552.0,False,28.6,48.6,51.4,41.0,3.15,46741.0,18.1,48.7,163513.0,1045.0,38.7,64.8,4.5,75.5,16.6,2.1,0.2,0.0,2.7,2.8
1093,AR,Arkansas,Faulkner,Conway,CENTRAL BAPTIST COLLEGE                                          ,1501 COLLEGE AVENUE                               ,72034,6470,6,2,2016,27,273,9.8,A,5,2,6,0,2015,19.0,248.0,7.6,A,2014,33.0,262.0,12.5,A,35.0753,-92.4695,72894.0,552.0,False,28.6,48.6,51.4,41.0,3.15,46741.0,18.1,48.7,163513.0,1045.0,38.7,64.8,4.5,75.5,16.6,2.1,0.2,0.0,2.7,2.8
1094,AR,Arkansas,Johnson,Clarksville,UNIVERSITY OF THE OZARKS                                         ,415 NORTH COLLEGE AVENUE                          ,72830,2880,6,2,2016,18,120,15.0,A,5,3,6,0,2015,18.0,141.0,12.7,A,2014,13.0,141.0,9.2,A,35.4569,-93.4803,7664.0,200.0,False,34.6,50.0,50.0,46.0,3.14,35108.0,10.3,54.7,91659.0,607.0,18.7,57.9,4.5,85.6,4.7,1.8,0.0,0.3,4.4,3.2
1095,AR,Arkansas,Greene,Paragould,CROWLEY'S RIDGE COLLEGE                                          ,100 COLLEGE DRIVE                                 ,72450,9775,6,2,2016,11,69,15.9,A,5,1,6,0,2015,6.0,59.0,10.1,A,2014,10.0,49.0,20.4,A,36.0556,-90.5148,26858.0,347.0,False,36.0,48.3,51.7,52.0,2.99,43351.0,12.5,58.6,116682.0,702.0,16.9,60.6,6.2,94.5,1.5,0.4,0.4,0.2,0.9,2.3
1097,AR,Arkansas,White,Searcy,HARDING UNIVERSITY                                               ,915 EAST MARKET                                   ,72149,1,8,2,2016,47,1223,3.8,A,5,2,6,0,2015,60.0,1353.0,4.4,A,2014,47.0,1283.0,3.6,A,35.2418,-91.7351,27180.0,504.0,False,28.8,47.5,52.5,42.8,2.99,41699.0,13.2,50.0,143505.0,801.0,33.3,55.6,5.4,83.6,9.2,1.3,0.4,0.1,1.7,3.8
1098,AR,Arkansas,Clark,Arkadelphia,HENDERSON STATE UNIVERSITY                                       ,1100 HENDERSON STREET                             ,71999,1,8,1,2016,72,974,7.3,A,5,4,6,0,2015,95.0,1134.0,8.3,A,2014,115.0,1099.0,10.4,A,34.125,-93.0719,10428.0,579.0,False,23.8,47.3,52.7,27.9,2.76,30823.0,9.5,43.9,104935.0,557.0,35.0,55.9,3.7,65.1,30.1,0.8,0.3,0.0,1.7,2.0
1099,AR,Arkansas,Faulkner,Conway,HENDRIX COLLEGE                                                  ,1600 WASHINGTON AVENUE                            ,72032,3080,8,2,2016,8,235,3.4,A,5,2,6,0,2015,12.0,250.0,4.8,A,2014,9.0,246.0,3.6,A,35.0753,-92.4695,72894.0,552.0,False,28.6,48.6,51.4,41.0,3.15,46741.0,18.1,48.7,163513.0,1045.0,38.7,64.8,4.5,75.5,16.6,2.1,0.2,0.0,2.7,2.8
1100,AR,Arkansas,Benton,Siloam Springs,JOHN BROWN UNIVERSITY                                            ,2000 WEST UNIVERSITY STREET                       ,72761,2747,8,2,2016,25,643,3.8,A,5,3,6,0,2015,20.0,631.0,3.1,A,2014,15.0,604.0,2.4,A,36.1844,-94.5318,21642.0,571.0,False,28.7,47.3,52.7,48.1,3.27,45973.0,11.4,50.9,124518.0,860.0,22.9,61.2,4.2,80.7,2.1,3.1,6.2,0.1,3.2,4.7
1101,AR,Arkansas,Pulaski,Little Rock,UNIVERSITY OF ARKANSAS AT LITTLE ROCK                            ,2801 SOUTH UNIVERSITY                             ,72204,1099,8,1,2016,257,3022,8.5,A,5,2,6,0,2015,320.0,3280.0,9.7,A,2014,339.0,3485.0,9.7,A,34.7255,-92.35799999999999,442699.0,643.0,False,36.0,48.1,51.9,41.2,3.22,48463.0,22.3,56.2,159269.0,995.0,40.4,65.0,5.0,50.8,41.6,3.1,0.2,0.1,1.7,2.6
1102,AR,Arkansas,Clark,Arkadelphia,OUACHITA BAPTIST UNIVERSITY                                      ,410 OUACHITA DRIVE                                ,71998,1,6,2,2016,22,301,7.3,A,5,4,6,0,2015,16.0,301.0,5.3,A,2014,19.0,289.0,6.5,A,34.125,-93.0719,10428.0,579.0,False,23.8,47.3,52.7,27.9,2.76,30823.0,9.5,43.9,104935.0,557.0,35.0,55.9,3.7,65.1,30.1,0.8,0.3,0.0,1.7,2.0
1103,AR,Arkansas,Pulaski,Little Rock,PHILANDER SMITH COLLEGE                                          ,900 WEST DAISY GASTON BATES DRIVE                 ,72202,3718,6,2,2016,62,259,23.9,A,2,2,6,0,2015,48.0,238.0,20.1,A,2014,55.0,270.0,20.3,A,34.7255,-92.35799999999999,442699.0,643.0,False,36.0,48.1,51.9,41.2,3.22,48463.0,22.3,56.2,159269.0,995.0,40.4,65.0,5.0,50.8,41.6,3.1,0.2,0.1,1.7,2.6
1104,AR,Arkansas,Phillips,Helena,PHILLIPS COMMUNITY COLLEGE OF THE UNIVERSITY OF ARKANSAS         ,1000 CAMPUS DRIVE                                 ,72342,0,5,1,2016,20,114,17.5,B,5,1,6,1,2015,4.0,35.0,11.4,A,2014,13.0,59.0,22.0,A,34.458059999999996,-90.68596,4966.0,23.9,False,35.6,48.5,51.5,30.9,3.38,25985.0,16.2,39.2,99156.0,568.0,20.8,51.6,14.5,32.4,65.5,0.2,0.0,0.0,0.5,1.4
1105,AR,Arkansas,Pulaski,North Little Rock,SHORTER COLLEGE                                                  ,604 LOCUST STREET                                 ,72114,4885,5,2,2016,65,272,23.8,A,2,2,6,0,2015,77.0,276.0,27.8,A,2014,19.0,82.0,23.1,A,34.7807,-92.2372,65911.0,486.0,False,34.3,47.7,52.3,35.9,3.32,41278.0,15.4,49.1,122482.0,810.0,27.4,62.5,9.2,49.5,44.0,0.8,0.3,0.0,1.4,3.9
1106,AR,Arkansas,Lawrence,Walnut Ridge,WILLIAMS BAPTIST UNIVERSITY                                      ,60 W. FULLBRIGHT AVENUE                           ,72476,4661,8,2,2016,14,146,9.5,A,5,1,6,0,2015,9.0,184.0,4.8,A,2014,11.0,179.0,6.1,A,36.0852,-90.9462,6568.0,119.0,False,35.3,47.9,52.1,46.3,2.99,40582.0,12.7,54.8,90589.0,581.0,16.9,51.3,9.7,95.2,2.8,0.2,0.3,0.0,0.3,1.2
1107,AR,Arkansas,Columbia,Magnolia,SOUTHERN ARKANSAS UNIVERSITY                                     ,100 EAST UNIVERSITY                               ,71753,5000,8,1,2016,139,874,15.9,A,5,4,6,0,2015,147.0,932.0,15.7,A,2014,164.0,916.0,17.9,A,33.2774,-93.2261,10339.0,335.0,False,27.2,43.8,56.2,33.9,2.9,34729.0,13.4,51.1,107400.0,594.0,25.6,57.4,8.8,52.1,42.2,2.3,0.6,0.0,2.6,0.3
1108,AR,Arkansas,Washington,Fayetteville,UNIVERSITY OF ARKANSAS                                           ,425 ADMINISTRATION BUILDING                       ,72701,0,8,1,2016,218,4361,4.9,P,5,3,6,0,2015,235.0,4279.0,5.4,P,2014,261.0,3837.0,6.8,P,36.0713,-94.166,341890.0,609.0,False,27.1,49.5,50.5,35.8,2.98,41158.0,19.4,38.3,193443.0,1082.0,48.1,63.5,5.2,80.7,6.9,3.4,0.8,0.0,4.4,3.8
1109,AR,Arkansas,Pulaski,Little Rock,UNIVERSITY OF ARKANSAS FOR MEDICAL SCIENCES                      ,4301 WEST MARKHAM STREET           SLOT 864       ,72205,7102,8,1,2016,12,701,1.7,P,5,2,6,0,2015,15.0,718.0,2.0,P,2014,13.0,764.0,1.7,P,34.7255,-92.35799999999999,442699.0,643.0,False,36.0,48.1,51.9,41.2,3.22,48463.0,22.3,56.2,159269.0,995.0,40.4,65.0,5.0,50.8,41.6,3.1,0.2,0.1,1.7,2.6
1110,AR,Arkansas,Sebastian,Fort Smith,UNIVERSITY OF ARKANSAS AT FORT SMITH                             ,5210 GRAND AVENUE                                 ,72904,7397,8,1,2016,228,1388,16.4,A,5,3,6,0,2015,241.0,1576.0,15.2,A,2014,199.0,1668.0,11.9,A,35.3493,-94.3695,125562.0,537.0,False,35.9,48.7,51.3,44.5,3.16,36532.0,12.2,50.9,116672.0,739.0,20.1,58.4,5.6,70.4,9.6,5.9,1.0,0.0,8.1,5.0
1111,CA,California,Santa Barbara,Santa Maria,ALLAN HANCOCK COLLEGE                                            ,800 SOUTH COLLEGE DRIVE                           ,93454,6399,5,1,2016,23,175,13.1,A,3,23,9,0,2015,43.0,190.0,22.6,A,2014,29.0,144.0,20.1,A,34.9333,-120.4432,140219.0,1813.0,False,29.3,49.8,50.2,46.7,4.16,55485.0,21.5,50.1,297686.0,1414.0,12.7,66.0,5.9,73.4,1.3,5.2,0.4,0.1,16.7,2.8
1113,CA,California,Los Angeles,Lancaster,ANTELOPE VALLEY COLLEGE                                          ,3041 WEST AVENUE K                                ,93536,5426,6,1,2016,252,1166,21.6,A,5,22,9,0,2015,442.0,1638.0,26.9,A,2014,396.0,1640.0,24.1,A,34.6934,-118.1753,349218.0,656.0,False,32.4,49.9,50.1,42.0,3.73,49314.0,18.8,53.8,209284.0,1348.0,16.0,51.1,8.0,62.2,21.7,4.2,0.6,0.2,6.4,4.7
1116,CA,California,Los Angeles,Pasadena,ART CENTER COLLEGE OF DESIGN                                     ,1700 LIDA STREET                                  ,91103,1999,8,2,2016,18,370,4.8,A,5,29,9,0,2015,21.0,415.0,5.0,A,2014,27.0,412.0,6.5,A,34.1597,-118.139,142647.0,2398.0,False,37.9,48.3,51.7,43.5,3.31,76264.0,38.3,43.6,689816.0,2256.0,51.1,66.4,5.8,53.9,10.2,16.3,0.3,0.2,15.1,4.0
1117,CA,California,Los Angeles,Azusa,AZUSA PACIFIC UNIVERSITY                                         ,901 EAST ALOSTA AVENUE                            ,91702,7000,8,2,2016,111,3628,3.0,A,5,32,9,0,2015,123.0,3593.0,3.4,A,2014,124.0,3247.0,3.8,A,34.1386,-117.9124,49864.0,1991.0,False,29.3,47.7,52.3,37.7,3.92,57728.0,25.5,52.9,367033.0,1598.0,20.0,64.1,7.9,45.1,2.6,12.1,0.7,0.2,34.9,4.5
1118,CA,California,Kern,Bakersfield,BAKERSFIELD COLLEGE                                              ,1801 PANORAMA DRIVE                               ,93305,1299,6,1,2016,56,370,15.1,A,3,22,9,0,2015,87.0,386.0,22.5,A,2014,110.0,539.0,20.4,A,35.353,-119.0359,574362.0,982.0,False,30.5,49.0,51.0,47.1,3.7,60058.0,26.7,57.0,227388.0,1383.0,21.5,63.7,9.2,68.3,7.5,7.3,1.1,0.2,12.0,3.6
1120,CA,California,Alameda,Berkeley,AMERICAN BAPTIST SEMINARY OF THE WEST                            ,2606 DWIGHT WAY                                   ,94704,3029,8,2,2016,2,42,4.7,P,5,9,9,0,2015,1.0,47.0,2.1,P,2014,4.0,57.0,7.0,P,37.8723,-122.27600000000001,122324.0,4509.0,False,31.0,48.5,51.5,32.4,2.88,75709.0,41.3,42.9,861440.0,2218.0,72.3,62.4,6.8,60.2,8.6,19.7,0.5,0.5,3.6,7.1
1122,CA,California,Los Angeles,La Mirada,BIOLA UNIVERSITY                                                 ,13800 BIOLA AVENUE                                ,90639,1,8,2,2016,26,1251,2.0,A,5,39,9,0,2015,39.0,1311.0,2.9,A,2014,38.0,1294.0,2.9,A,33.9025,-118.0093,49095.0,2423.0,False,39.1,49.5,50.5,49.3,3.56,87400.0,42.6,77.8,477634.0,1870.0,30.2,58.8,6.4,53.5,2.3,19.3,0.6,0.1,17.7,6.5
1124,CA,California,Santa Cruz,Aptos,CABRILLO COLLEGE                                                 ,6500 SOQUEL DRIVE                                 ,95003,3194,5,1,2016,51,287,17.7,A,5,17,9,0,2015,57.0,347.0,16.4,A,2014,58.0,332.0,17.4,A,36.9912,-121.8934,5775.0,338.0,False,47.9,48.0,52.0,51.7,2.93,84559.0,46.6,80.4,745632.0,2025.0,59.9,67.8,4.0,88.9,1.6,4.9,0.7,0.0,0.9,3.0
1125,CA,California,Riverside,Riverside,CALIFORNIA BAPTIST UNIVERSITY                                    ,8432 MAGNOLIA AVENUE                              ,92504,3297,8,2,2016,122,2656,4.5,A,5,44,9,0,2015,95.0,2381.0,3.9,A,2014,93.0,2128.0,4.3,A,33.9381,-117.3948,2084749.0,1557.0,False,31.3,49.5,50.5,41.8,3.93,62460.0,26.2,54.2,318031.0,1556.0,22.5,63.5,9.5,61.9,6.0,7.2,0.8,0.3,18.9,4.8
1127,CA,California,San Francisco,San Francisco,CALIFORNIA COLLEGE OF THE ARTS                                   ,1111 EIGHTH STREET                                ,94107,2206,8,2,2016,12,409,2.9,A,5,8,9,0,2015,19.0,467.0,4.0,A,2014,28.0,488.0,5.7,A,37.7562,-122.443,3603761.0,7286.0,False,38.3,51.0,49.0,39.8,3.15,96265.0,48.8,37.3,927729.0,2435.0,55.8,70.4,5.4,47.2,5.3,34.2,0.4,0.4,7.5,5.1
1131,CA,California,Los Angeles,Pasadena,CALIFORNIA INSTITUTE OF TECHNOLOGY                               ,1200 EAST CALIFORNIA BOULEVARD                    ,91125,1,8,2,2016,0,40,0.0,A,5,29,9,0,2015,1.0,30.0,3.3,A,2014,0.0,37.0,0.0,A,34.1597,-118.139,142647.0,2398.0,False,37.9,48.3,51.7,43.5,3.31,76264.0,38.3,43.6,689816.0,2256.0,51.1,66.4,5.8,53.9,10.2,16.3,0.3,0.2,15.1,4.0
1132,CA,California,Los Angeles,Valencia,CALIFORNIA INSTITUTE OF THE ARTS                                 ,24700 MCBEAN PARKWAY                              ,91355,2397,8,2,2016,16,320,5.0,A,5,25,9,0,2015,25.0,392.0,6.3,A,2014,19.0,362.0,5.2,A,34.424659999999996,-118.58923,31455.0,812.1,False,40.7,50.0,50.0,50.6,3.09,92707.0,46.3,58.8,528734.0,1933.0,45.6,65.2,5.2,71.6,3.5,12.0,0.2,0.1,5.6,7.0
1133,CA,California,Ventura,Thousand Oaks,CALIFORNIA LUTHERAN UNIVERSITY                                   ,60 WEST OLSEN ROAD                                ,91360,2787,8,2,2016,31,1027,3.0,P,5,24,9,0,2015,37.0,1193.0,3.1,P,2014,30.0,1003.0,2.9,P,34.1914,-118.8755,218729.0,901.0,False,43.5,49.1,50.9,54.5,3.24,103793.0,52.1,70.1,663119.0,2366.0,50.1,65.4,6.6,81.4,1.2,9.6,0.3,0.1,3.3,4.2
1134,CA,California,Solano,Vallejo,CALIFORNIA STATE UNIVERSITY MARITIME ACADEMY                     ,200 MARITIME ACADEMY DRIVE                        ,94590,8181,8,1,2016,13,215,6.0,A,5,7,9,0,2015,10.0,262.0,3.8,A,2014,10.0,213.0,4.6,A,38.1133,-122.2359,173844.0,1536.0,False,37.8,48.5,51.5,41.0,3.42,62272.0,27.7,55.4,293646.0,1535.0,25.5,62.7,10.7,38.7,21.1,23.6,0.4,1.0,7.9,7.2
1137,CA,California,Orange,Fullerton,"CALIFORNIA STATE UNIVERSITY, FULLERTON                           ",800 NORTH STATE COLLEGE BOULEVARD                 ,92831,3599,8,1,2016,159,6100,2.6,A,5,40,9,0,2015,230.0,5872.0,3.9,A,2014,219.0,5835.0,3.7,A,33.8841,-117.9279,140392.0,2416.0,False,35.0,49.6,50.4,46.1,3.48,71660.0,34.4,51.6,588112.0,2025.0,40.6,65.3,7.5,55.3,2.8,24.6,0.3,0.4,11.8,4.7
1138,CA,California,Alameda,Hayward,"CALIFORNIA STATE UNIVERSITY, EAST BAY                            ",25800 CARLOS BEE BOULEVARD                        ,94542,3000,8,1,2016,166,3049,5.4,A,5,13,9,0,2015,189.0,3180.0,5.9,A,2014,181.0,3116.0,5.8,A,37.6328,-122.0772,160500.0,1360.0,False,34.9,49.2,50.8,45.4,3.7,74927.0,35.7,51.6,456923.0,1955.0,26.8,67.3,6.3,39.9,10.2,26.0,0.7,2.3,14.5,6.5
1139,CA,California,Los Angeles,Long Beach,"CALIFORNIA STATE UNIVERSITY, LONG BEACH                          ",1250 BELLFLOWER BOULEVARD                         ,90840,6,8,1,2016,162,6805,2.3,A,5,46,9,0,2015,241.0,6658.0,3.6,A,2014,201.0,6233.0,3.2,A,33.798,-118.1675,469450.0,3575.0,False,34.3,49.3,50.7,38.7,3.61,58314.0,26.6,40.0,476281.0,1834.0,29.9,65.9,8.2,52.5,12.9,13.2,1.2,0.9,14.6,4.7
1140,CA,California,Los Angeles,Los Angeles,"CALIFORNIA STATE UNIVERSITY, LOS ANGELES                         ",5151 STATE UNIVERSITY DRIVE                       ,90032,4226,8,1,2016,169,3906,4.3,A,3,32,9,0,2015,244.0,4471.0,5.4,A,2014,218.0,3891.0,5.6,A,34.1139,-118.4068,12815475.0,3295.0,False,35.2,49.5,50.5,38.6,3.63,54501.0,27.0,36.8,549600.0,2085.0,33.1,66.3,8.1,52.2,8.9,11.7,0.7,0.2,22.9,3.5
1141,CA,California,Los Angeles,Carson,"CALIFORNIA STATE UNIVERSITY, DOMINGUEZ HILLS                     ",1000 EAST VICTORIA STREET                         ,90747,1,8,1,2016,168,2935,5.7,A,3,37,9,0,2015,260.0,3377.0,7.6,A,2014,248.0,3226.0,7.6,A,33.8374,-118.2559,92735.0,1912.0,False,38.5,48.5,51.5,43.2,4.06,75517.0,35.1,74.5,395571.0,1670.0,25.6,63.5,9.1,28.8,23.2,26.8,0.8,2.1,13.0,5.4
1142,CA,California,San Bernardino,San Bernardino,"CALIFORNIA STATE UNIVERSITY, SAN BERNARDINO                      ",5500 UNIVERSITY PARKWAY                           ,92407,2397,8,1,2016,209,3629,5.7,A,3,41,9,0,2015,226.0,3812.0,5.9,A,2014,224.0,3891.0,5.7,A,34.1417,-117.2945,216995.0,1350.0,False,29.4,49.1,50.9,36.0,4.02,41027.0,12.8,46.8,199643.0,1123.0,11.4,57.3,12.8,57.4,14.1,4.5,0.7,0.2,18.5,4.6
1143,CA,California,San Luis Obispo,San Luis Obispo,CALIFORNIA POLYTECHNIC STATE UNIVERSITY                          ,ONE GRAND AVENUE                                  ,93407,1,8,1,2016,26,2716,0.9,A,5,22,9,0,2015,45.0,2989.0,1.5,A,2014,43.0,2684.0,1.6,A,35.266999999999996,-120.6689,62398.0,1397.0,False,26.5,51.4,48.6,30.0,2.93,49640.0,25.3,38.3,578263.0,1523.0,49.1,60.9,4.5,84.7,2.2,5.6,0.5,0.0,3.5,3.6
1144,CA,California,Los Angeles,Pomona,"CALIFORNIA STATE POLYTECHNIC UNIVERSITY, POMONA                  ",3801 WEST TEMPLE AVENUE                           ,91768,2500,8,1,2016,112,3810,2.9,A,5,38,9,0,2015,134.0,3538.0,3.7,A,2014,134.0,3562.0,3.7,A,34.0585,-117.7626,152939.0,2571.0,False,31.5,49.7,50.3,40.4,4.21,53281.0,20.6,52.6,343070.0,1558.0,17.7,63.2,9.7,55.1,6.3,9.7,1.9,0.2,22.7,4.1
1146,CA,California,Butte,Chico,"CALIFORNIA STATE UNIVERSITY, CHICO                               ",400 WEST FIRST STREET                             ,95929,1,8,1,2016,170,3287,5.1,A,5,2,9,0,2015,147.0,3040.0,4.8,A,2014,167.0,3081.0,5.4,A,39.7575,-121.8152,106268.0,1076.0,False,29.9,49.1,50.9,34.7,3.12,45337.0,19.6,44.4,285033.0,1250.0,36.9,63.7,8.2,82.3,2.0,4.7,0.7,0.2,4.8,5.3
1147,CA,California,Fresno,Fresno,"CALIFORNIA STATE UNIVERSITY, FRESNO                              ",5150 NORTH MAPLE AVENUE            MS JA64        ,93740,8026,8,1,2016,200,3983,5.0,P,3,21,9,0,2015,194.0,3849.0,5.0,P,2014,234.0,3809.0,6.1,P,36.7831,-119.7941,698021.0,1781.0,False,30.5,49.0,51.0,40.2,3.69,44853.0,17.8,46.9,203780.0,1199.0,20.9,61.5,11.1,56.6,7.8,13.6,1.1,0.1,16.4,4.3
1149,CA,California,Humboldt,Arcata,HUMBOLDT STATE UNIVERSITY                                        ,1 HARPST STREET                                   ,95521,8299,8,1,2016,157,2119,7.4,A,5,1,9,0,2015,141.0,2068.0,6.8,A,2014,138.0,1907.0,7.2,A,40.8615,-124.0757,33806.0,741.0,False,25.4,47.4,52.6,22.9,2.8,30866.0,13.2,37.3,335361.0,807.0,50.4,60.8,14.2,79.4,2.6,2.1,2.0,0.2,6.4,7.3
1150,CA,California,Sacramento,Sacramento,CALIFORNIA STATE UNIVERSITY - SACRAMENTO                         ,6000 J STREET                                     ,95819,6044,8,1,2016,263,5590,4.7,A,5,5,9,0,2015,322.0,5927.0,5.4,A,2014,304.0,5844.0,5.2,A,38.5667,-121.4683,1854698.0,1980.0,False,34.3,48.8,51.2,40.5,3.43,54615.0,24.0,47.3,286886.0,1349.0,31.5,63.3,9.3,48.5,13.4,18.7,0.7,1.6,10.3,6.8
1151,CA,California,San Diego,San Diego,SAN DIEGO STATE UNIVERSITY                                       ,5500 CAMPANILE DRIVE                              ,92182,1690,8,1,2016,155,5255,2.9,P,5,53,9,0,2015,159.0,5512.0,2.8,P,2014,197.0,5471.0,3.6,P,32.8312,-117.1225,3210314.0,1683.0,False,34.3,50.3,49.7,43.8,3.4,71535.0,35.3,46.8,523012.0,1925.0,44.4,67.6,7.0,64.7,6.4,16.8,0.4,0.4,6.2,5.1
1154,CA,California,San Francisco,San Francisco,SAN FRANCISCO STATE UNIVERSITY                                   ,1600 HOLLOWAY AVENUE                              ,94132,1740,8,1,2016,289,5406,5.3,A,5,12,9,0,2015,270.0,5552.0,4.8,A,2014,316.0,5859.0,5.3,A,37.7562,-122.443,3603761.0,7286.0,False,38.3,51.0,49.0,39.8,3.15,96265.0,48.8,37.3,927729.0,2435.0,55.8,70.4,5.4,47.2,5.3,34.2,0.4,0.4,7.5,5.1
1155,CA,California,Santa Clara,San Jose,SAN JOSE STATE UNIVERSITY                                        ,ONE WASHINGTON SQUARE                             ,95192,36,8,1,2016,183,5093,3.5,A,5,16,9,0,2015,191.0,5401.0,3.5,A,2014,183.0,5216.0,3.5,A,37.3021,-121.8489,1821899.0,2257.0,False,36.4,50.5,49.5,50.7,3.62,96662.0,48.6,57.5,711511.0,2338.0,41.3,67.9,6.4,40.7,3.0,34.8,0.6,0.4,15.5,5.1
1156,CA,California,Sonoma,Rohnert Park,SONOMA STATE UNIVERSITY                                          ,1801 EAST COTATI AVENUE                           ,94928,3609,8,1,2016,62,1728,3.5,A,5,6,9,0,2015,91.0,1720.0,5.2,A,2014,56.0,1747.0,3.2,A,38.348,-122.6964,42838.0,2361.0,False,33.6,47.0,53.0,40.3,3.13,62769.0,24.6,51.6,360570.0,1590.0,26.2,68.0,4.7,72.4,1.9,5.7,0.5,0.1,13.1,6.3
1157,CA,California,Stanislaus,Turlock,"CALIFORNIA STATE UNIVERSITY, STANISLAUS                          ",ONE UNIVERSITY CIRCLE                             ,95382,299,8,1,2016,81,1815,4.4,A,3,19,9,0,2015,87.0,1882.0,4.6,A,2014,113.0,1993.0,5.6,A,37.5053,-120.8587,107208.0,1678.0,False,34.4,47.9,52.1,47.2,3.43,53661.0,23.6,52.3,264305.0,1295.0,23.7,62.3,10.1,79.3,2.1,5.6,0.6,0.2,7.9,4.2
1161,CA,California,Los Angeles,Norwalk,CERRITOS COMMUNITY COLLEGE                                       ,11110 ALONDRA BOULEVARD                           ,90650,6296,5,1,2016,64,570,11.2,A,3,39,9,0,2015,104.0,620.0,16.7,A,2014,140.0,655.0,21.3,A,33.9069,-118.0829,106084.0,4218.0,False,34.9,49.7,50.3,45.2,4.18,63669.0,26.0,63.0,375358.0,1658.0,16.9,61.8,6.8,48.7,4.0,13.6,0.7,0.2,30.0,2.9
1162,CA,California,Alameda,Hayward,CHABOT COLLEGE                                                   ,25555 HESPERIAN BOULEVARD                         ,94545,2400,5,1,2016,29,200,14.5,A,5,13,9,0,2015,24.0,196.0,12.2,A,2014,45.0,262.0,17.1,A,37.6328,-122.0772,160500.0,1360.0,False,34.9,49.2,50.8,45.4,3.7,74927.0,35.7,51.6,456923.0,1955.0,26.8,67.3,6.3,39.9,10.2,26.0,0.7,2.3,14.5,6.5
1163,CA,California,San Bernardino,Rancho Cucamonga,CHAFFEY COMMUNITY COLLEGE                                        ,5885 HAVEN AVENUE                                 ,91737,9400,5,1,2016,16,158,10.1,B,3,26,9,1,2015,3.0,50.0,6.0,A,2014,12.0,80.0,15.0,A,34.1248,-117.5666,177452.0,1707.0,False,35.5,49.9,50.1,49.4,3.56,83736.0,40.0,61.3,440609.0,2020.0,33.9,66.4,7.3,62.4,9.3,13.1,0.7,0.3,9.2,5.0
1164,CA,California,Orange,Orange,CHAPMAN UNIVERSITY                                               ,ONE UNIVERSITY DRIVE                              ,92866,1099,8,2,2016,30,1633,1.8,A,5,40,9,0,2015,39.0,1736.0,2.2,A,2014,62.0,1873.0,3.3,A,33.8038,-117.8218,140560.0,2114.0,False,35.2,49.8,50.2,46.3,3.52,83500.0,40.6,57.0,604206.0,2087.0,34.3,65.4,5.7,70.4,1.5,11.6,0.5,0.1,12.7,3.2
1165,CA,California,Alameda,Berkeley,CHURCH DIVINITY SCHOOL OF THE PACIFIC                            ,2451 RIDGE ROAD                                   ,94709,1217,8,2,2016,0,48,0.0,B,5,9,9,1,2015,1.0,48.0,2.0,B,2014,1.0,44.0,2.2,B,37.8723,-122.27600000000001,122324.0,4509.0,False,31.0,48.5,51.5,32.4,2.88,75709.0,41.3,42.9,861440.0,2218.0,72.3,62.4,6.8,60.2,8.6,19.7,0.5,0.5,3.6,7.1
1166,CA,California,Los Angeles,Glendora,CITRUS COLLEGE                                                   ,1000 WEST FOOTHILL BOULEVARD                      ,91741,1899,5,1,2016,28,278,10.0,A,3,26,9,0,2015,41.0,290.0,14.1,A,2014,53.0,310.0,17.0,A,34.1449,-117.8467,52445.0,1037.0,False,41.4,49.1,50.9,50.5,3.4,86442.0,43.4,70.6,517004.0,1948.0,36.1,63.7,8.5,69.7,2.3,10.9,0.5,0.2,10.2,6.3
1169,CA,California,Los Angeles,Claremont,CLAREMONT GRADUATE UNIVERSITY                                    ,170 EAST 10TH STREET                              ,91711,6163,8,2,2016,12,393,3.0,A,5,26,9,0,2015,17.0,460.0,3.6,A,2014,15.0,477.0,3.1,A,34.1259,-117.7153,36015.0,1041.0,False,39.5,47.8,52.2,46.0,3.25,96923.0,49.1,65.9,605910.0,2116.0,55.9,60.8,5.6,65.3,5.3,13.8,0.9,0.0,8.7,6.0
1170,CA,California,Los Angeles,Claremont,CLAREMONT MCKENNA COLLEGE                                        ,500 EAST NINTH STREET                             ,91711,6400,8,2,2016,1,50,2.0,A,5,26,9,0,2015,1.0,79.0,1.2,A,2014,0.0,56.0,0.0,A,34.1259,-117.7153,36015.0,1041.0,False,39.5,47.8,52.2,46.0,3.25,96923.0,49.1,65.9,605910.0,2116.0,55.9,60.8,5.6,65.3,5.3,13.8,0.9,0.0,8.7,6.0
1171,CA,California,Los Angeles,Claremont,HARVEY MUDD COLLEGE                                              ,301 PLATT BOULEVARD                               ,91711,5990,6,2,2016,0,150,0.0,A,5,26,9,0,2015,1.0,124.0,0.8,A,2014,0.0,141.0,0.0,A,34.1259,-117.7153,36015.0,1041.0,False,39.5,47.8,52.2,46.0,3.25,96923.0,49.1,65.9,605910.0,2116.0,55.9,60.8,5.6,65.3,5.3,13.8,0.9,0.0,8.7,6.0
1172,CA,California,Los Angeles,Claremont,PITZER COLLEGE                                                   ,1050 NORTH MILLS AVENUE                           ,91711,6101,6,2,2016,8,123,6.5,A,5,26,9,0,2015,5.0,127.0,3.9,A,2014,2.0,136.0,1.4,A,34.1259,-117.7153,36015.0,1041.0,False,39.5,47.8,52.2,46.0,3.25,96923.0,49.1,65.9,605910.0,2116.0,55.9,60.8,5.6,65.3,5.3,13.8,0.9,0.0,8.7,6.0
1173,CA,California,Los Angeles,Claremont,POMONA COLLEGE                                                   ,550 NORTH COLLEGE AVENUE                          ,91711,6301,6,2,2016,0,60,0.0,A,5,26,9,0,2015,0.0,68.0,0.0,A,2014,0.0,64.0,0.0,A,34.1259,-117.7153,36015.0,1041.0,False,39.5,47.8,52.2,46.0,3.25,96923.0,49.1,65.9,605910.0,2116.0,55.9,60.8,5.6,65.3,5.3,13.8,0.9,0.0,8.7,6.0
1174,CA,California,Los Angeles,Claremont,SCRIPPS COLLEGE                                                  ,1030 COLUMBIA AVENUE                              ,91711,3948,6,2,2016,0,103,0.0,A,5,26,9,0,2015,2.0,126.0,1.5,A,2014,0.0,104.0,0.0,A,34.1259,-117.7153,36015.0,1041.0,False,39.5,47.8,52.2,46.0,3.25,96923.0,49.1,65.9,605910.0,2116.0,55.9,60.8,5.6,65.3,5.3,13.8,0.9,0.0,8.7,6.0
1176,CA,California,Fresno,Coalinga,WEST HILLS COMMUNITY COLLEGE                                     ,300 CHERRY LANE                                   ,93210,1399,5,1,2016,36,130,27.6,P,3,20,9,0,2015,40.0,165.0,24.2,P,2014,45.0,182.0,24.7,P,36.1432,-120.3266,15915.0,970.0,False,32.3,60.1,39.9,33.7,3.58,54605.0,26.4,54.5,145584.0,1157.0,11.6,46.7,11.1,61.3,4.2,2.3,1.1,0.4,24.1,6.5
1177,CA,California,Santa Clara,San Jose,COGSWELL POLYTECHNICAL COLLEGE                                   ,191 BAYPOINTE PARKWAY                             ,95134,1697,8,3,2016,11,143,7.6,A,5,12,9,0,2015,20.0,155.0,12.9,A,2014,13.0,99.0,13.1,A,37.3021,-121.8489,1821899.0,2257.0,False,36.4,50.5,49.5,50.7,3.62,96662.0,48.6,57.5,711511.0,2338.0,41.3,67.9,6.4,40.7,3.0,34.8,0.6,0.4,15.5,5.1
1178,CA,California,Marin,Kentfield,COLLEGE OF MARIN                                                 ,835 COLLEGE AVENUE                                ,94904,2590,5,1,2016,54,254,21.2,A,5,6,9,0,2015,109.0,383.0,28.4,A,2014,91.0,389.0,23.3,A,37.9481,-122.5498,6927.0,884.0,False,47.3,47.8,52.2,62.2,3.09,192344.0,68.7,79.0,1687600.0,4001.0,81.3,62.6,4.0,94.7,1.0,2.4,0.0,0.0,0.7,1.3
1179,CA,California,San Mateo,Belmont,NOTRE DAME DE NAMUR UNIVERSITY                                   ,1500 RALSTON AVENUE                               ,94002,1997,8,2,2016,40,680,5.8,A,5,14,9,0,2015,24.0,591.0,4.0,A,2014,29.0,595.0,4.8,A,37.5154,-122.2955,27140.0,2261.0,False,39.6,49.0,51.0,59.7,3.18,125958.0,60.0,60.0,1181886.0,2947.0,61.5,67.4,4.8,62.8,1.3,27.2,0.2,0.4,2.5,5.7
1181,CA,California,San Mateo,San Mateo,COLLEGE OF SAN MATEO                                             ,1700 WEST HILLSDALE BOULEVARD                     ,94402,3784,5,1,2016,5,63,7.9,A,5,12,9,0,2015,15.0,77.0,19.4,A,2014,9.0,87.0,10.3,A,37.5522,-122.3122,104748.0,3322.0,False,38.7,49.4,50.6,50.7,3.24,103399.0,51.8,54.9,920760.0,2440.0,50.8,70.6,4.1,57.8,2.2,22.2,0.3,2.1,9.5,5.9
1182,CA,California,Riverside,Palm Desert,COLLEGE OF THE DESERT                                            ,43-500 MONTEREY AVENUE                            ,92260,9305,5,1,2016,17,83,20.4,A,3,45,9,0,2015,30.0,125.0,24.0,A,2014,55.0,229.0,24.0,A,33.7378,-116.3695,52932.0,762.0,False,52.4,47.0,53.0,51.6,2.82,56262.0,26.0,61.2,325566.0,1324.0,35.9,53.4,5.2,82.7,1.7,4.6,0.3,0.1,6.0,4.5
1183,CA,California,Alameda,Oakland,HOLY NAMES UNIVERSITY                                            ,3500 MOUNTAIN BOULEVARD                           ,94619,1699,8,2,2016,34,465,7.3,P,5,9,9,0,2015,18.0,444.0,4.0,P,2014,38.0,457.0,8.3,P,37.7903,-122.2165,425195.0,2937.0,False,36.4,48.8,51.2,37.9,3.33,63251.0,32.2,39.8,562908.0,2021.0,40.6,67.9,8.0,36.7,24.3,15.9,0.9,0.6,14.7,7.0
1185,CA,California,Humboldt,Eureka,COLLEGE OF THE REDWOODS                                          ,7351 TOMPKINS HILL ROAD                           ,95501,9300,5,1,2016,42,223,18.8,A,5,1,9,0,2015,41.0,252.0,16.2,A,2014,50.0,356.0,14.0,A,40.7941,-124.1568,45010.0,1118.0,False,37.5,51.2,48.8,36.6,3.03,39720.0,10.1,45.2,249304.0,1141.0,25.8,59.9,9.0,75.4,2.3,7.1,3.4,0.0,4.8,7.0
1186,CA,California,Tulare,Visalia,COLLEGE OF THE SEQUOIAS                                          ,915 SOUTH MOONEY BOULEVARD                        ,93277,2234,5,1,2016,37,160,23.1,A,3,21,9,0,2015,32.0,178.0,17.9,A,2014,40.0,190.0,21.0,A,36.3276,-119.3269,234573.0,1355.0,False,31.9,48.1,51.9,48.1,3.55,54934.0,23.5,59.8,207450.0,1245.0,22.7,60.3,6.8,78.3,2.0,5.7,1.2,0.1,8.1,4.6
1187,CA,California,Siskiyou,Weed,COLLEGE OF THE SISKIYOUS                                         ,800 COLLEGE AVENUE                                ,96094,2899,5,1,2016,52,270,19.2,A,5,2,9,0,2015,59.0,294.0,20.0,A,2014,77.0,328.0,23.4,A,41.4128,-122.3816,2716.0,219.0,False,37.7,49.7,50.3,29.2,2.97,32772.0,11.2,47.6,126327.0,733.0,17.4,54.5,10.1,73.8,8.8,1.7,2.9,0.1,4.5,8.2
1190,CA,California,Contra Costa,San Pablo,CONTRA COSTA COLLEGE                                             ,2600 MISSION BELL DRIVE                           ,94806,3195,5,1,2016,16,109,14.6,A,5,7,9,0,2015,18.0,135.0,13.3,A,2014,26.0,127.0,20.4,A,37.9628,-122.3425,31156.0,4574.0,False,33.7,50.1,49.9,40.9,3.85,47459.0,15.9,38.1,269368.0,1227.0,12.8,64.5,8.2,51.1,12.8,14.9,0.6,0.2,16.1,4.2
1191,CA,California,Contra Costa,Pleasant Hill,DIABLO VALLEY COLLEGE                                            ,321 GOLF CLUB ROAD                                ,94523,1544,5,1,2016,17,204,8.3,A,5,10,9,0,2015,26.0,239.0,10.8,A,2014,23.0,180.0,12.7,A,37.954,-122.0759,34987.0,1909.0,False,39.3,47.9,52.1,49.4,3.06,101530.0,50.9,60.9,632874.0,2159.0,53.6,66.8,5.1,75.4,1.9,13.2,0.2,0.5,2.8,6.1
1192,CA,California,San Luis Obispo,San Luis Obispo,CUESTA COLLEGE                                                   ,HIGHWAY 1                                         ,93403,8106,5,1,2016,24,364,6.5,A,5,23,9,0,2015,41.0,408.0,10.0,A,2014,53.0,389.0,13.6,A,35.266999999999996,-120.6689,62398.0,1397.0,False,26.5,51.4,48.6,30.0,2.93,49640.0,25.3,38.3,578263.0,1523.0,49.1,60.9,4.5,84.7,2.2,5.6,0.5,0.0,3.5,3.6
1193,CA,California,Orange,Cypress,CYPRESS COLLEGE                                                  ,9200 VALLEY VIEW STREET                           ,90630,5897,6,1,2016,32,284,11.2,A,5,40,9,0,2015,32.0,336.0,9.5,A,2014,58.0,373.0,15.5,A,33.8171,-118.0386,49064.0,2864.0,False,41.7,48.5,51.5,53.9,3.45,90345.0,44.7,67.2,576366.0,2000.0,40.9,63.5,4.5,55.1,4.0,32.7,0.6,0.4,3.0,4.2
1196,CA,California,Marin,San Rafael,DOMINICAN UNIVERSITY OF CALIFORNIA                               ,50 ACACIA AVENUE                                  ,94901,2298,8,2,2016,21,521,4.0,A,5,6,9,0,2015,15.0,613.0,2.4,A,2014,35.0,661.0,5.2,A,37.9904,-122.5222,59070.0,1376.0,False,41.3,50.1,49.9,45.6,3.12,85931.0,45.3,52.3,814759.0,2483.0,49.6,66.1,5.8,65.9,2.7,6.3,0.4,0.2,19.3,5.3
1197,CA,California,Los Angeles,Torrance,EL CAMINO COLLEGE                                                ,16007 CRENSHAW BOULEVARD                          ,90506,2,5,1,2016,5,123,4.0,P,3,35,9,0,2015,37.0,233.0,15.8,P,2014,91.0,426.0,21.3,P,33.8346,-118.3417,146758.0,2767.0,False,41.7,49.0,51.0,53.6,3.22,85070.0,42.5,54.9,687208.0,2063.0,48.9,63.9,5.5,49.4,2.5,35.4,0.5,0.5,5.0,6.7
1199,CA,California,Santa Clara,Los Altos Hills,FOOTHILL COLLEGE                                                 ,12345 EL MONTE ROAD                               ,94022,4597,6,1,2016,60,401,14.9,A,5,14,9,0,2015,74.0,520.0,14.2,A,2014,104.0,582.0,17.8,A,37.3672,-122.139,8580.0,370.0,False,51.4,49.7,50.3,70.0,3.03,248218.0,79.0,90.5,2000001.0,3472.0,83.5,54.5,3.3,66.7,0.8,28.9,0.0,0.2,0.4,3.0
1200,CA,California,Los Angeles,Pasadena,FULLER THEOLOGICAL SEMINARY                                      ,135 NORTH OAKLAND AVENUE                          ,91182,2,8,2,2016,11,444,2.4,A,5,29,9,0,2015,14.0,405.0,3.4,A,2014,9.0,478.0,1.8,A,34.1597,-118.139,142647.0,2398.0,False,37.9,48.3,51.7,43.5,3.31,76264.0,38.3,43.6,689816.0,2256.0,51.1,66.4,5.8,53.9,10.2,16.3,0.3,0.2,15.1,4.0
1201,CA,California,Orange,Fullerton,FULLERTON COLLEGE                                                ,321 EAST CHAPMAN AVENUE                           ,92832,2095,5,1,2016,73,520,14.0,A,3,40,9,0,2015,100.0,524.0,19.0,A,2014,136.0,517.0,26.3,A,33.8841,-117.9279,140392.0,2416.0,False,35.0,49.6,50.4,46.1,3.48,71660.0,34.4,51.6,588112.0,2025.0,40.6,65.3,7.5,55.3,2.8,24.6,0.3,0.4,11.8,4.7
1202,CA,California,Santa Clara,Gilroy,GAVILAN COLLEGE                                                  ,5055 SANTA TERESA BOULEVARD                       ,95020,9599,5,1,2016,8,69,11.5,A,3,15,9,0,2015,14.0,105.0,13.3,A,2014,28.0,176.0,15.9,A,37.0047,-121.5856,116235.0,1351.0,False,34.1,48.8,51.2,47.5,3.68,86742.0,43.1,58.0,581866.0,2334.0,25.7,70.6,6.1,73.4,1.8,6.8,0.9,0.0,12.6,4.6
1203,CA,California,Los Angeles,Glendale,GLENDALE COMMUNITY COLLEGE                                       ,1500 NORTH VERDUGO ROAD                           ,91208,2894,5,1,2016,11,293,3.7,A,5,29,9,0,2015,42.0,408.0,10.2,A,2014,41.0,396.0,10.3,A,34.1818,-118.2468,203054.0,2572.0,False,41.2,47.5,52.5,49.8,3.32,58657.0,30.0,33.8,675501.0,2276.0,39.6,62.3,8.1,72.7,1.7,15.9,0.2,0.1,5.8,3.6
1205,CA,California,San Francisco,San Francisco,GOLDEN GATE UNIVERSITY                                           ,536 MISSION STREET                                ,94105,2967,8,2,2016,29,679,4.2,A,5,8,9,0,2015,26.0,791.0,3.2,A,2014,27.0,857.0,3.1,A,37.7562,-122.443,3603761.0,7286.0,False,38.3,51.0,49.0,39.8,3.15,96265.0,48.8,37.3,927729.0,2435.0,55.8,70.4,5.4,47.2,5.3,34.2,0.4,0.4,7.5,5.1
1206,CA,California,Orange,Huntington Beach,GOLDEN WEST COLLEGE                                              ,15744 GOLDEN WEST STREET                          ,92647,2748,5,1,2016,21,225,9.3,A,5,46,9,0,2015,30.0,270.0,11.1,A,2014,36.0,268.0,13.4,A,33.696,-118.0025,201874.0,2886.0,False,41.9,50.0,50.0,48.8,3.12,88079.0,43.3,58.3,687646.0,1988.0,42.3,66.7,4.7,74.6,1.4,11.9,0.5,0.4,6.4,4.9
1207,CA,California,Alameda,Berkeley,GRADUATE THEOLOGICAL UNION                                       ,2400 RIDGE ROAD                                   ,94709,1212,8,2,2016,2,40,5.0,A,5,9,9,0,2015,1.0,100.0,1.0,B,2014,0.0,44.0,0.0,A,37.8723,-122.27600000000001,122324.0,4509.0,False,31.0,48.5,51.5,32.4,2.88,75709.0,41.3,42.9,861440.0,2218.0,72.3,62.4,6.8,60.2,8.6,19.7,0.5,0.5,3.6,7.1
1208,CA,California,San Diego,El Cajon,GROSSMONT COLLEGE                                                ,8800 GROSSMONT COLLEGE DRIVE                      ,92020,1799,5,1,2016,44,305,14.4,A,5,52,9,0,2015,43.0,320.0,13.4,A,2014,58.0,384.0,15.1,A,32.8017,-116.9604,103894.0,2769.0,False,33.8,50.7,49.3,44.3,3.62,49445.0,20.0,38.2,389263.0,1565.0,19.1,63.2,10.6,72.8,5.7,3.4,0.5,0.8,9.9,6.9
1209,CA,California,Monterey,Salinas,HARTNELL COMMUNITY COLLEGE                                       ,411 CENTRAL AVENUE                                ,93901,1697,5,1,2016,16,85,18.8,B,3,17,9,1,2015,44.0,178.0,24.7,B,2014,11.0,44.0,25.0,A,36.6884,-121.6317,193590.0,2597.0,False,30.2,50.1,49.9,43.4,4.23,54864.0,20.9,44.5,339179.0,1568.0,12.9,63.6,6.2,56.2,1.4,6.0,0.6,0.1,32.7,3.0
1212,CA,California,San Joaquin,Stockton,HUMPHREYS UNIVERSITY                                             ,6650 INGLEWOOD AVENUE                             ,95207,3896,8,2,2016,29,343,8.4,A,5,11,9,0,2015,35.0,406.0,8.6,A,2014,43.0,471.0,9.1,A,37.9766,-121.3111,394467.0,1943.0,False,32.3,48.9,51.1,42.3,3.76,48396.0,19.9,47.8,218510.0,1310.0,17.4,59.2,11.9,43.9,11.5,21.7,0.6,0.8,11.8,9.7
1215,CA,California,Riverside,Riverside,LA SIERRA UNIVERSITY                                             ,4500 RIVERWALK PARKWAY                            ,92515,3332,8,2,2016,37,740,5.0,A,5,44,9,0,2015,35.0,677.0,5.1,A,2014,31.0,727.0,4.2,A,33.9381,-117.3948,2084749.0,1557.0,False,31.3,49.5,50.5,41.8,3.93,62460.0,26.2,54.2,318031.0,1556.0,22.5,63.5,9.5,61.9,6.0,7.2,0.8,0.3,18.9,4.8
1216,CA,California,Los Angeles,La Verne,UNIVERSITY OF LA VERNE                                           ,1950 3RD STREET                                   ,91750,4443,8,2,2016,95,2345,4.0,A,3,26,9,0,2015,119.0,2513.0,4.7,A,2014,112.0,2429.0,4.6,A,34.1208,-117.7702,32461.0,1484.0,False,43.3,48.1,51.9,51.0,3.34,82829.0,41.7,74.2,502777.0,1672.0,37.7,61.1,7.3,74.7,4.2,7.4,0.8,0.1,7.2,5.6
1217,CA,California,Lassen,Susanville,LASSEN COLLEGE                                                   ,478-200 HIGHWAY 139                               ,96130,3000,5,1,2016,13,60,21.6,A,5,4,9,0,2015,15.0,76.0,19.7,A,2014,25.0,115.0,21.7,A,40.4205,-120.6129,8783.0,744.0,False,31.4,76.0,24.0,30.3,3.22,51105.0,18.2,47.0,168453.0,1103.0,7.7,23.2,7.4,75.1,13.8,2.3,2.6,1.4,2.9,2.1
1218,CA,California,San Bernardino,Loma Linda,LOMA LINDA UNIVERSITY                                            ,11139 ANDERSON STREET                             ,92350,1,8,2,2016,12,1260,0.9,P,5,41,9,0,2015,17.0,1302.0,1.3,P,2014,18.0,1182.0,1.5,P,34.0451,-117.2498,24196.0,1220.0,False,34.8,47.0,53.0,44.3,3.31,52310.0,21.2,35.6,327380.0,1165.0,47.9,57.0,6.1,54.5,12.5,25.8,0.3,0.7,3.0,3.3
1219,CA,California,Los Angeles,Long Beach,LONG BEACH CITY COLLEGE                                          ,4901 EAST CARSON STREET                           ,90808,1780,5,1,2016,113,645,17.5,A,3,37,9,0,2015,205.0,950.0,21.5,A,2014,306.0,1090.0,28.0,A,33.798,-118.1675,469450.0,3575.0,False,34.3,49.3,50.7,38.7,3.61,58314.0,26.6,40.0,476281.0,1834.0,29.9,65.9,8.2,52.5,12.9,13.2,1.2,0.9,14.6,4.7
1220,CA,California,Los Angeles,Santa Clarita,MASTER'S UNIVERSITY AND SEMINARY (THE)                           ,21726 PLACERITA CANYON ROAD                       ,91321,1200,8,2,2016,5,312,1.6,A,5,25,9,0,2015,14.0,357.0,3.9,A,2014,12.0,345.0,3.4,A,34.4155,-118.4992,309378.0,1235.0,False,36.9,49.6,50.4,51.6,3.48,90544.0,44.7,67.7,460639.0,2173.0,35.0,68.7,7.1,70.3,4.2,10.9,0.9,0.1,7.1,6.5
1223,CA,California,Los Angeles,Los Angeles,LOS ANGELES CITY COLLEGE                                         ,855 NORTH VERMONT AVENUE                          ,90029,3588,5,1,2016,86,608,14.1,A,3,31,9,0,2015,127.0,694.0,18.2,A,2014,134.0,700.0,19.1,A,34.1139,-118.4068,12815475.0,3295.0,False,35.2,49.5,50.5,38.6,3.63,54501.0,27.0,36.8,549600.0,2085.0,33.1,66.3,8.1,52.2,8.9,11.7,0.7,0.2,22.9,3.5
1224,CA,California,Los Angeles,Wilmington,LOS ANGELES HARBOR COLLEGE                                       ,1111 FIGUEROA PLACE                               ,90744,2397,5,1,2016,9,117,7.6,P,3,36,9,0,2015,11.0,102.0,10.7,P,2014,23.0,119.0,19.3,P,33.77864,-118.26167,57206.0,2491.9,False,30.2,50.4,49.6,40.2,4.33,47776.0,16.3,37.2,374902.0,1111.0,7.6,64.4,7.0,53.9,2.4,2.9,4.0,0.4,32.6,3.7
1227,CA,California,Los Angeles,Los Angeles,LOS ANGELES TRADE-TECHNICAL COLLEGE                              ,400 WEST WASHINGTON BOULEVARD                     ,90015,4181,5,1,2016,82,374,21.9,A,3,31,9,0,2015,108.0,457.0,23.6,A,2014,115.0,385.0,29.8,A,34.1139,-118.4068,12815475.0,3295.0,False,35.2,49.5,50.5,38.6,3.63,54501.0,27.0,36.8,549600.0,2085.0,33.1,66.3,8.1,52.2,8.9,11.7,0.7,0.2,22.9,3.5
1228,CA,California,Los Angeles,Van Nuys,LOS ANGELES VALLEY COLLEGE                                       ,5800 FULTON AVENUE                                ,91401,4096,5,1,2016,45,439,10.2,A,3,28,9,0,2015,67.0,492.0,13.6,A,2014,64.0,425.0,15.0,A,34.17812,-118.43146000000002,41412.0,4392.5,False,36.2,50.6,49.4,42.6,3.41,54058.0,27.1,34.1,645162.0,1318.0,33.5,70.5,7.4,61.7,5.0,5.5,0.8,0.0,23.6,3.5
1229,CA,California,Los Angeles,Whittier,SOUTHERN CALIFORNIA UNIVERSITY OF HEALTH SCIENCES                ,16200 EAST AMBER VALLEY DRIVE                     ,90604,4051,8,2,2016,6,152,3.9,A,5,39,9,0,2015,6.0,195.0,3.0,A,2014,9.0,194.0,4.6,A,33.9678,-118.0188,86838.0,2288.0,False,36.8,48.8,51.2,45.9,3.62,69058.0,33.5,58.1,489310.0,1984.0,24.8,62.9,5.4,54.9,1.6,4.6,0.4,0.1,35.0,3.4
1230,CA,California,Orange,Fullerton,MARSHALL B. KETCHUM UNIVERSITY                                   ,2575 YORBA LINDA BOULEVARD                        ,92831,1699,8,2,2016,0,109,0.0,P,5,40,9,0,2015,0.0,118.0,0.0,P,2014,0.0,114.0,0.0,P,33.8841,-117.9279,140392.0,2416.0,False,35.0,49.6,50.4,46.1,3.48,71660.0,34.4,51.6,588112.0,2025.0,40.6,65.3,7.5,55.3,2.8,24.6,0.3,0.4,11.8,4.7
1232,CA,California,Sacramento,Sacramento,AMERICAN RIVER COLLEGE                                           ,4700 COLLEGE OAK DRIVE                            ,95841,4286,5,1,2016,174,1001,17.3,A,5,3,9,0,2015,243.0,1330.0,18.2,A,2014,361.0,1558.0,23.1,A,38.5667,-121.4683,1854698.0,1980.0,False,34.3,48.8,51.2,40.5,3.43,54615.0,24.0,47.3,286886.0,1349.0,31.5,63.3,9.3,48.5,13.4,18.7,0.7,1.6,10.3,6.8
1233,CA,California,Sacramento,Sacramento,SACRAMENTO CITY COLLEGE                                          ,3835 FREEPORT BOULEVARD                           ,95822,1386,5,1,2016,128,735,17.4,A,5,5,9,0,2015,189.0,924.0,20.4,A,2014,233.0,1065.0,21.8,A,38.5667,-121.4683,1854698.0,1980.0,False,34.3,48.8,51.2,40.5,3.43,54615.0,24.0,47.3,286886.0,1349.0,31.5,63.3,9.3,48.5,13.4,18.7,0.7,1.6,10.3,6.8
1236,CA,California,San Mateo,Atherton,MENLO COLLEGE                                                    ,1000 EL CAMINO REAL                               ,94027,4301,6,2,2016,13,186,6.9,A,5,14,9,0,2015,10.0,192.0,5.2,A,2014,10.0,166.0,6.0,A,37.4539,-122.2032,7238.0,555.0,False,49.4,50.3,49.7,59.8,3.17,250001.0,80.8,93.4,2000001.0,3776.0,77.9,51.6,5.1,75.4,0.4,17.9,0.6,0.2,1.2,4.3
1238,CA,California,Alameda,Oakland,MILLS COLLEGE                                                    ,5000 MACARTHUR BOULEVARD                          ,94613,1301,8,2,2016,18,502,3.5,A,5,9,9,0,2015,14.0,540.0,2.5,A,2014,15.0,532.0,2.8,A,37.7903,-122.2165,425195.0,2937.0,False,36.4,48.8,51.2,37.9,3.33,63251.0,32.2,39.8,562908.0,2021.0,40.6,67.9,8.0,36.7,24.3,15.9,0.9,0.6,14.7,7.0
1239,CA,California,San Diego,Oceanside,MIRACOSTA COLLEGE                                                ,ONE BARNARD DRIVE                                 ,92056,3899,6,1,2016,31,222,13.9,A,5,49,9,0,2015,28.0,189.0,14.8,A,2014,18.0,164.0,10.9,A,33.2247,-117.3083,176193.0,1649.0,False,37.5,49.7,50.3,49.6,3.37,61778.0,28.8,56.0,420264.0,1691.0,30.0,62.5,6.6,73.1,5.0,7.4,0.8,0.7,7.4,5.6
1242,CA,California,Monterey,Monterey,MONTEREY PENINSULA COLLEGE                                       ,980 FREMONT STREET                                ,93940,4799,5,1,2016,32,142,22.5,A,5,17,9,0,2015,29.0,190.0,15.2,A,2014,36.0,177.0,20.3,A,36.5922,-121.8807,28639.0,1280.0,False,37.9,52.5,47.5,41.5,2.89,73942.0,35.1,36.8,695547.0,1885.0,50.2,66.3,3.8,79.0,3.7,7.4,0.3,0.3,3.5,5.9
1243,CA,California,Los Angeles,Los Angeles,MOUNT SAINT MARY'S UNIVERSITY                                    ,12001 CHALON ROAD                                 ,90049,1599,8,2,2016,37,1116,3.3,P,3,30,9,0,2015,47.0,1118.0,4.2,P,2014,37.0,922.0,4.0,P,34.1139,-118.4068,12815475.0,3295.0,False,35.2,49.5,50.5,38.6,3.63,54501.0,27.0,36.8,549600.0,2085.0,33.1,66.3,8.1,52.2,8.9,11.7,0.7,0.2,22.9,3.5
1245,CA,California,Los Angeles,Walnut,MOUNT SAN ANTONIO COLLEGE                                        ,1100 NORTH GRAND AVENUE                           ,91789,1399,5,1,2016,33,236,13.9,A,3,26,9,0,2015,29.0,285.0,10.1,A,2014,34.0,338.0,10.0,A,34.0334,-117.8593,30199.0,1296.0,False,44.0,49.9,50.1,60.0,3.56,98329.0,49.3,83.9,703806.0,2114.0,52.0,59.8,5.5,21.7,2.9,64.1,0.4,0.1,7.6,3.3
1246,CA,California,Riverside,San Jacinto,MT. SAN JACINTO COLLEGE                                          ,1499 NORTH STATE STREET                           ,92583,2399,5,1,2016,5,45,11.1,A,5,41,9,0,2015,7.0,50.0,14.0,A,2014,14.0,113.0,12.3,A,33.797,-116.9915,48254.0,724.0,False,32.5,48.5,51.5,46.2,4.07,48025.0,17.7,64.9,172714.0,1126.0,13.9,57.3,11.9,66.5,6.5,3.6,2.1,0.2,16.0,5.0
1247,CA,California,Napa,Napa,NAPA VALLEY COLLEGE                                              ,2277 NAPA VALLEJO HIGHWAY                         ,94558,6236,5,1,2016,8,66,12.1,A,5,1,9,0,2015,6.0,90.0,6.6,A,2014,14.0,103.0,13.5,A,38.2976,-122.3011,87032.0,1715.0,False,38.2,49.6,50.4,49.9,3.36,75341.0,36.7,56.7,533409.0,1820.0,31.9,68.8,4.9,76.2,0.7,3.1,1.1,0.2,15.3,3.4
1249,CA,California,Los Angeles,Los Angeles,OCCIDENTAL COLLEGE                                               ,1600 CAMPUS ROAD                                  ,90041,3314,8,2,2016,6,354,1.6,A,5,31,9,0,2015,4.0,355.0,1.1,A,2014,2.0,359.0,0.5,A,34.1139,-118.4068,12815475.0,3295.0,False,35.2,49.5,50.5,38.6,3.63,54501.0,27.0,36.8,549600.0,2085.0,33.1,66.3,8.1,52.2,8.9,11.7,0.7,0.2,22.9,3.5
1250,CA,California,Orange,Costa Mesa,ORANGE COAST COLLEGE                                             ,2701 FAIRVIEW ROAD                                ,92628,5005,5,1,2016,35,379,9.2,A,5,46,9,0,2015,67.0,462.0,14.5,A,2014,47.0,427.0,11.0,A,33.6667,-117.9135,113825.0,2782.0,False,34.5,51.0,49.0,42.7,3.35,75109.0,37.2,39.1,670852.0,2122.0,38.4,72.4,5.4,70.5,1.6,8.6,0.4,0.9,14.2,3.8
1251,CA,California,Los Angeles,Los Angeles,OTIS COLLEGE OF ART & DESIGN                                     ,9045 LINCOLN BOULEVARD                            ,90045,3505,8,2,2016,11,242,4.5,A,5,35,9,0,2015,16.0,266.0,6.0,A,2014,12.0,318.0,3.7,A,34.1139,-118.4068,12815475.0,3295.0,False,35.2,49.5,50.5,38.6,3.63,54501.0,27.0,36.8,549600.0,2085.0,33.1,66.3,8.1,52.2,8.9,11.7,0.7,0.2,22.9,3.5
1252,CA,California,Orange,Fullerton,HOPE INTERNATIONAL UNIVERSITY                                    ,2500 EAST NUTWOOD AVENUE                          ,92831,3104,8,2,2016,26,501,5.1,P,5,40,9,0,2015,27.0,444.0,6.0,P,2014,42.0,489.0,8.5,P,33.8841,-117.9279,140392.0,2416.0,False,35.0,49.6,50.4,46.1,3.48,71660.0,34.4,51.6,588112.0,2025.0,40.6,65.3,7.5,55.3,2.8,24.6,0.3,0.4,11.8,4.7
1253,CA,California,Fresno,Fresno,FRESNO PACIFIC UNIVERSITY                                        ,1717 SOUTH CHESTNUT AVENUE                        ,93702,4798,8,2,2016,63,1171,5.3,P,5,20,9,0,2015,84.0,1279.0,6.5,P,2014,86.0,1168.0,7.3,P,36.7831,-119.7941,698021.0,1781.0,False,30.5,49.0,51.0,40.2,3.69,44853.0,17.8,46.9,203780.0,1199.0,20.9,61.5,11.1,56.6,7.8,13.6,1.1,0.1,16.4,4.3
1255,CA,California,Los Angeles,Pasadena,PACIFIC OAKS COLLEGE                                             ,55 EUREKA STREET                                  ,91103,3606,8,2,2016,34,560,6.0,A,5,29,9,0,2015,23.0,429.0,5.3,A,2014,30.0,483.0,6.2,A,34.1597,-118.139,142647.0,2398.0,False,37.9,48.3,51.7,43.5,3.31,76264.0,38.3,43.6,689816.0,2256.0,51.1,66.4,5.8,53.9,10.2,16.3,0.3,0.2,15.1,4.0
1256,CA,California,Alameda,Berkeley,PACIFIC SCHOOL OF RELIGION                                       ,1798 SCENIC AVENUE                                ,94709,1323,8,2,2016,4,56,7.1,A,5,9,9,0,2015,3.0,51.0,5.8,A,2014,3.0,44.0,6.8,A,37.8723,-122.27600000000001,122324.0,4509.0,False,31.0,48.5,51.5,32.4,2.88,75709.0,41.3,42.9,861440.0,2218.0,72.3,62.4,6.8,60.2,8.6,19.7,0.5,0.5,3.6,7.1
1258,CA,California,Napa,Angwin,PACIFIC UNION COLLEGE                                            ,1 ANGWIN AVENUE                                   ,94508,9797,8,2,2016,40,498,8.0,A,5,1,9,0,2015,32.0,448.0,7.1,A,2014,33.0,479.0,6.8,A,38.5776,-122.4512,3463.0,276.0,False,25.9,52.3,47.7,33.0,3.19,69156.0,37.2,49.2,644151.0,2313.0,43.2,68.7,6.1,65.5,7.6,12.8,0.6,0.2,8.2,5.2
1260,CA,California,San Diego,San Marcos,PALOMAR COLLEGE                                                  ,1140 WEST MISSION ROAD                            ,92069,1486,5,1,2016,30,226,13.2,A,5,50,9,0,2015,44.0,255.0,17.2,A,2014,62.0,323.0,19.1,A,33.135,-117.1743,96198.0,1524.0,False,35.1,49.7,50.3,52.7,3.62,70417.0,36.7,61.3,421602.0,2085.0,33.4,64.9,4.8,71.4,2.8,9.7,0.8,0.7,8.6,6.0
1261,CA,California,Los Angeles,Pasadena,PASADENA CITY COLLEGE                                            ,1570 EAST COLORADO BOULEVARD                      ,91106,2003,5,1,2016,23,233,9.8,A,3,29,9,0,2015,37.0,275.0,13.4,A,2014,36.0,251.0,14.3,A,34.1597,-118.139,142647.0,2398.0,False,37.9,48.3,51.7,43.5,3.31,76264.0,38.3,43.6,689816.0,2256.0,51.1,66.4,5.8,53.9,10.2,16.3,0.3,0.2,15.1,4.0
1262,CA,California,San Diego,San Diego,POINT LOMA NAZARENE UNIVERSITY                                   ,3900 LOMALAND DRIVE                               ,92106,2899,8,2,2016,24,872,2.7,A,5,53,9,0,2015,32.0,962.0,3.3,A,2014,28.0,975.0,2.8,A,32.8312,-117.1225,3210314.0,1683.0,False,34.3,50.3,49.7,43.8,3.4,71535.0,35.3,46.8,523012.0,1925.0,44.4,67.6,7.0,64.7,6.4,16.8,0.4,0.4,6.2,5.1
1266,CA,California,Alameda,Oakland,LANEY COLLEGE                                                    ,900 FALLON STREET                                 ,94607,4893,5,1,2016,68,243,27.9,A,5,9,9,0,2015,43.0,152.0,28.2,A,2014,45.0,176.0,25.5,A,37.7903,-122.2165,425195.0,2937.0,False,36.4,48.8,51.2,37.9,3.33,63251.0,32.2,39.8,562908.0,2021.0,40.6,67.9,8.0,36.7,24.3,15.9,0.9,0.6,14.7,7.0
1267,CA,California,Alameda,Oakland,MERRITT COLLEGE                                                  ,12500 CAMPUS DRIVE                                ,94619,3196,5,1,2016,47,199,23.6,A,5,9,9,0,2015,37.0,152.0,24.3,A,2014,52.0,186.0,27.9,A,37.7903,-122.2165,425195.0,2937.0,False,36.4,48.8,51.2,37.9,3.33,63251.0,32.2,39.8,562908.0,2021.0,40.6,67.9,8.0,36.7,24.3,15.9,0.9,0.6,14.7,7.0
1269,CA,California,Los Angeles,Whittier,RIO HONDO COMMUNITY COLLEGE                                      ,3600 WORKMAN MILL ROAD                            ,90601,1699,6,1,2016,16,104,15.3,A,3,38,9,0,2015,23.0,125.0,18.4,A,2014,34.0,166.0,20.4,A,33.9678,-118.0188,86838.0,2288.0,False,36.8,48.8,51.2,45.9,3.62,69058.0,33.5,58.1,489310.0,1984.0,24.8,62.9,5.4,54.9,1.6,4.6,0.4,0.1,35.0,3.4
1270,CA,California,Riverside,Riverside,RIVERSIDE CITY COLLEGE                                           ,4800 MAGNOLIA AVENUE                              ,92506,1299,5,1,2016,47,338,13.9,A,5,44,9,0,2015,44.0,417.0,10.5,A,2014,69.0,454.0,15.1,A,33.9381,-117.3948,2084749.0,1557.0,False,31.3,49.5,50.5,41.8,3.93,62460.0,26.2,54.2,318031.0,1556.0,22.5,63.5,9.5,61.9,6.0,7.2,0.8,0.3,18.9,4.8
1272,CA,California,San Bernardino,San Bernardino,SAN BERNARDINO VALLEY COLLEGE                                    ,701 SOUTH MOUNT VERNON AVENUE                     ,92410,2798,5,1,2016,10,93,10.7,B,3,43,9,1,2015,19.0,165.0,11.5,B,2014,4.0,60.0,6.6,A,34.1417,-117.2945,216995.0,1350.0,False,29.4,49.1,50.9,36.0,4.02,41027.0,12.8,46.8,199643.0,1123.0,11.4,57.3,12.8,57.4,14.1,4.5,0.7,0.2,18.5,4.6
1273,CA,California,San Diego,San Diego,SAN DIEGO CITY COLLEGE                                           ,1313 PARK BOULEVARD                               ,92101,4787,5,1,2016,72,486,14.8,P,3,53,9,0,2015,90.0,589.0,15.2,P,2014,143.0,684.0,20.9,P,32.8312,-117.1225,3210314.0,1683.0,False,34.3,50.3,49.7,43.8,3.4,71535.0,35.3,46.8,523012.0,1925.0,44.4,67.6,7.0,64.7,6.4,16.8,0.4,0.4,6.2,5.1
1275,CA,California,San Diego,San Diego,SAN DIEGO MESA COLLEGE                                           ,7250 MESA COLLEGE DRIVE                           ,92111,4996,6,1,2016,40,398,10.0,A,5,53,9,0,2015,55.0,490.0,11.2,A,2014,61.0,543.0,11.2,A,32.8312,-117.1225,3210314.0,1683.0,False,34.3,50.3,49.7,43.8,3.4,71535.0,35.3,46.8,523012.0,1925.0,44.4,67.6,7.0,64.7,6.4,16.8,0.4,0.4,6.2,5.1
1278,CA,California,San Francisco,San Francisco,SAN FRANCISCO CONSERVATORY OF MUSIC                              ,50 OAK STREET                                     ,94102,6011,8,2,2016,3,68,4.4,A,5,12,9,0,2015,2.0,117.0,1.7,A,2014,5.0,112.0,4.4,A,37.7562,-122.443,3603761.0,7286.0,False,38.3,51.0,49.0,39.8,3.15,96265.0,48.8,37.3,927729.0,2435.0,55.8,70.4,5.4,47.2,5.3,34.2,0.4,0.4,7.5,5.1
1279,CA,California,Marin,San Anselmo,SAN FRANCISCO THEOLOGICAL SEMINARY                               ,105 SEMINARY ROAD                                 ,94960,2905,8,2,2016,4,47,8.5,B,5,6,9,1,2015,5.0,61.0,8.1,B,2014,6.0,60.0,10.0,B,37.9821,-122.5699,12580.0,1814.0,False,47.4,46.9,53.1,60.6,2.91,116867.0,57.5,76.0,964487.0,2897.0,72.4,71.2,5.3,92.7,0.6,2.8,0.0,0.0,0.6,3.2
1280,CA,California,San Joaquin,Stockton,SAN JOAQUIN DELTA COLLEGE                                        ,5151 PACIFIC AVENUE                               ,95207,6370,5,1,2016,154,666,23.1,A,5,11,9,0,2015,166.0,805.0,20.6,A,2014,186.0,810.0,22.9,A,37.9766,-121.3111,394467.0,1943.0,False,32.3,48.9,51.1,42.3,3.76,48396.0,19.9,47.8,218510.0,1310.0,17.4,59.2,11.9,43.9,11.5,21.7,0.6,0.8,11.8,9.7
1281,CA,California,Placer,Rocklin,WILLIAM JESSUP UNIVERSITY                                        ,2121 UNIVERSITY AVENUE                            ,95765,3784,8,2,2016,26,383,6.7,A,5,16,9,0,2015,19.0,393.0,4.8,A,2014,19.0,338.0,5.6,A,38.8075,-121.2488,64838.0,1263.0,False,37.7,48.4,51.6,55.0,3.31,91995.0,46.0,66.2,421838.0,2084.0,42.9,68.1,5.2,79.7,1.9,8.7,0.6,0.1,2.3,6.6
1282,CA,California,Santa Clara,San Jose,SAN JOSE CITY COLLEGE                                            ,2100 MOORPARK AVENUE                              ,95128,2797,5,1,2016,32,156,20.5,A,5,15,9,0,2015,34.0,202.0,16.8,A,2014,40.0,203.0,19.7,A,37.3021,-121.8489,1821899.0,2257.0,False,36.4,50.5,49.5,50.7,3.62,96662.0,48.6,57.5,711511.0,2338.0,41.3,67.9,6.4,40.7,3.0,34.8,0.6,0.4,15.5,5.1
1284,CA,California,Orange,Santa Ana,SANTA ANA COLLEGE                                                ,1530 WEST 17TH STREET                             ,92706,3398,6,1,2016,12,158,7.5,A,3,47,9,0,2015,18.0,183.0,9.8,A,2014,27.0,214.0,12.6,A,33.7366,-117.8819,334136.0,4715.0,False,31.0,50.5,49.5,43.7,4.55,57151.0,23.4,45.4,419851.0,1548.0,13.2,67.4,6.5,44.2,1.0,11.6,0.6,0.3,40.7,1.7
1285,CA,California,Santa Barbara,Santa Barbara,SANTA BARBARA CITY COLLEGE                                       ,721 CLIFF DRIVE                                   ,93109,2394,5,1,2016,167,1323,12.6,A,5,23,9,0,2015,231.0,1486.0,15.5,A,2014,247.0,1350.0,18.2,A,34.4285,-119.7202,204034.0,1823.0,False,37.9,50.1,49.9,41.1,3.09,71160.0,35.8,40.7,934308.0,2134.0,48.3,68.8,4.5,77.5,1.4,3.9,0.7,0.2,12.6,3.7
1286,CA,California,Los Angeles,Santa Monica,SANTA MONICA COLLEGE                                             ,1900 PICO BOULEVARD                               ,90405,1644,6,1,2016,34,349,9.7,A,5,30,9,0,2015,46.0,350.0,13.1,A,2014,38.0,366.0,10.3,A,34.0232,-118.4813,92306.0,4235.0,False,40.5,49.1,50.9,36.8,2.91,86084.0,44.1,27.7,1169122.0,2734.0,67.1,70.7,7.3,76.6,4.3,10.0,0.4,0.1,3.4,5.2
1287,CA,California,Sonoma,Santa Rosa,SANTA ROSA JUNIOR COLLEGE                                        ,1501 MENDOCINO AVENUE                             ,95401,4395,5,1,2016,25,292,8.5,A,5,6,9,0,2015,54.0,393.0,13.7,A,2014,61.0,391.0,15.6,A,38.4458,-122.7067,321908.0,1591.0,False,38.1,48.4,51.6,44.1,3.26,67144.0,30.2,53.1,457902.0,1684.0,31.6,65.7,6.2,68.8,2.5,5.4,1.9,0.6,14.1,6.5
1288,CA,California,Los Angeles,Claremont,CLAREMONT SCHOOL OF THEOLOGY                                     ,1325 NORTH COLLEGE AVENUE                         ,91711,3199,8,2,2016,2,48,4.1,A,5,26,9,0,2015,1.0,50.0,2.0,A,2014,1.0,48.0,2.0,A,34.1259,-117.7153,36015.0,1041.0,False,39.5,47.8,52.2,46.0,3.25,96923.0,49.1,65.9,605910.0,2116.0,55.9,60.8,5.6,65.3,5.3,13.8,0.9,0.0,8.7,6.0
1289,CA,California,Shasta,Redding,SHASTA COLLEGE                                                   ,11555 OLD OREGON TRAIL                            ,96049,7692,6,1,2016,53,359,14.7,A,5,2,9,0,2015,83.0,424.0,19.5,A,2014,109.0,479.0,22.7,A,40.5698,-122.365,120270.0,594.0,False,38.2,48.1,51.9,45.2,2.99,46389.0,18.1,52.4,244358.0,1142.0,25.3,55.9,6.4,84.3,1.4,4.8,2.2,0.0,2.6,4.7
1290,CA,California,Placer,Rocklin,SIERRA COLLEGE                                                   ,5100 SIERRA COLLEGE BOULEVARD                     ,95677,3397,5,1,2016,116,803,14.4,A,5,4,9,0,2015,179.0,923.0,19.3,A,2014,193.0,942.0,20.4,A,38.8075,-121.2488,64838.0,1263.0,False,37.7,48.4,51.6,55.0,3.31,91995.0,46.0,66.2,421838.0,2084.0,42.9,68.1,5.2,79.7,1.9,8.7,0.6,0.1,2.3,6.6
1291,CA,California,Shasta,Redding,SIMPSON UNIVERSITY                                               ,2211 COLLEGE VIEW DRIVE                           ,96003,8606,8,2,2016,16,475,3.3,A,5,2,9,0,2015,21.0,444.0,4.7,A,2014,37.0,535.0,6.9,A,40.5698,-122.365,120270.0,594.0,False,38.2,48.1,51.9,45.2,2.99,46389.0,18.1,52.4,244358.0,1142.0,25.3,55.9,6.4,84.3,1.4,4.8,2.2,0.0,2.6,4.7
1292,CA,California,Solano,Fairfield,SOLANO COMMUNITY COLLEGE                                         ,4000 SUISUN VALLEY ROAD                           ,94534,3197,6,1,2016,34,211,16.1,A,5,10,9,0,2015,39.0,290.0,13.4,A,2014,54.0,363.0,14.8,A,38.2594,-122.0319,147582.0,1094.0,False,34.8,49.1,50.9,50.2,3.53,75292.0,35.8,56.0,342216.0,1783.0,25.6,65.2,9.0,46.4,14.4,17.4,0.5,1.5,12.0,7.6
1293,CA,California,Orange,Costa Mesa,VANGUARD UNIVERSITY OF SOUTHERN CALIFORNIA                       ,55 FAIR DRIVE                                     ,92626,6597,8,2,2016,31,696,4.4,A,5,46,9,0,2015,33.0,755.0,4.3,A,2014,31.0,667.0,4.6,A,33.6667,-117.9135,113825.0,2782.0,False,34.5,51.0,49.0,42.7,3.35,75109.0,37.2,39.1,670852.0,2122.0,38.4,72.4,5.4,70.5,1.6,8.6,0.4,0.9,14.2,3.8
1294,CA,California,San Diego,Chula Vista,SOUTHWESTERN COMMUNITY COLLEGE DISTRICT                          ,900 OTAY LAKES ROAD                               ,91910,7299,5,1,2016,38,252,15.0,A,3,51,9,0,2015,29.0,265.0,10.9,A,2014,42.0,286.0,14.6,A,32.6281,-117.0145,270471.0,2104.0,False,34.6,48.9,51.1,49.9,3.77,70197.0,32.4,58.0,429263.0,2069.0,28.1,64.2,9.2,66.6,4.8,15.1,0.5,0.5,7.2,5.3
1295,CA,California,Los Angeles,Los Angeles,SOUTHWESTERN LAW SCHOOL                                          ,3050 WILSHIRE BOULEVARD                           ,90010,1106,8,2,2016,4,334,1.1,A,5,31,9,0,2015,1.0,337.0,0.2,A,2014,4.0,352.0,1.1,A,34.1139,-118.4068,12815475.0,3295.0,False,35.2,49.5,50.5,38.6,3.63,54501.0,27.0,36.8,549600.0,2085.0,33.1,66.3,8.1,52.2,8.9,11.7,0.7,0.2,22.9,3.5
1296,CA,California,Alameda,Berkeley,DOMINICAN SCHOOL OF PHILOSOPHY AND THEOLOGY                      ,2301 VINE STREET                                  ,94708,1295,8,2,2016,2,42,4.7,B,5,9,9,1,2015,2.0,49.0,4.0,B,2014,0.0,36.0,0.0,B,37.8723,-122.27600000000001,122324.0,4509.0,False,31.0,48.5,51.5,32.4,2.88,75709.0,41.3,42.9,861440.0,2218.0,72.3,62.4,6.8,60.2,8.6,19.7,0.5,0.5,3.6,7.1
1302,CA,California,Contra Costa,Moraga,SAINT MARY'S COLLEGE OF CALIFORNIA                               ,1928 SAINT MARY'S ROAD                            ,94575,2744,8,2,2016,27,1072,2.5,A,5,10,9,0,2015,41.0,1172.0,3.4,A,2014,30.0,1128.0,2.6,A,37.8438,-122.1225,17630.0,719.0,False,42.8,47.5,52.5,55.5,3.12,139018.0,63.9,82.4,1035085.0,2768.0,74.1,55.8,5.5,72.4,2.6,17.8,0.2,0.3,1.2,5.4
1305,CA,California,Santa Clara,Stanford,STANFORD UNIVERSITY                                              ,1 STANFORD UNIVERSITY                             ,94305,1926,8,2,2016,10,941,1.0,P,5,14,9,0,2015,5.0,959.0,0.5,P,2014,12.0,1103.0,1.0,P,37.4252,-122.1674,15277.0,2159.0,False,22.0,56.1,43.9,17.1,3.13,60357.0,35.8,27.9,1567646.0,2698.0,95.3,48.4,5.9,56.6,4.3,27.0,0.4,0.3,1.8,9.7
1307,CA,California,Fresno,Fresno,FRESNO CITY COLLEGE                                              ,1101 EAST UNIVERSITY AVENUE                       ,93741,2,5,1,2016,70,432,16.2,A,3,19,9,0,2015,115.0,545.0,21.1,A,2014,131.0,648.0,20.2,A,36.7831,-119.7941,698021.0,1781.0,False,30.5,49.0,51.0,40.2,3.69,44853.0,17.8,46.9,203780.0,1199.0,20.9,61.5,11.1,56.6,7.8,13.6,1.1,0.1,16.4,4.3
1308,CA,California,Fresno,Reedley,REEDLEY COLLEGE                                                  ,995 NORTH REED AVENUE                             ,93654,2099,5,1,2016,38,207,18.3,A,3,21,9,0,2015,35.0,225.0,15.5,A,2014,65.0,256.0,25.3,A,36.5983,-119.4473,48970.0,1789.0,False,31.6,51.3,48.7,51.9,3.79,43036.0,15.2,61.9,175489.0,1009.0,14.5,62.4,16.5,73.1,1.2,3.7,0.1,0.0,17.8,4.0
1312,CA,California,Alameda,Berkeley,"UNIVERSITY OF CALIFORNIA, BERKELEY                               ",200 CALIFORNIA HALL                               ,94720,1520,8,1,2016,91,4542,2.0,P,5,9,9,0,2015,113.0,4705.0,2.4,P,2014,107.0,5019.0,2.1,P,37.8723,-122.27600000000001,122324.0,4509.0,False,31.0,48.5,51.5,32.4,2.88,75709.0,41.3,42.9,861440.0,2218.0,72.3,62.4,6.8,60.2,8.6,19.7,0.5,0.5,3.6,7.1
1313,CA,California,Yolo,Davis,"UNIVERSITY OF CALIFORNIA, DAVIS                                  ",ONE SHIELDS AVENUE                                ,95616,8558,8,1,2016,91,5456,1.6,P,5,1,9,0,2015,115.0,5620.0,2.0,P,2014,124.0,5566.0,2.2,P,38.5552,-121.7365,76524.0,2693.0,False,25.8,48.1,51.9,37.0,2.98,63071.0,35.9,43.9,593245.0,1901.0,73.7,58.4,5.5,63.8,2.5,22.0,0.2,0.2,4.6,6.6
1314,CA,California,Orange,Irvine,"UNIVERSITY OF CALIFORNIA, IRVINE                                 ",510 ALDRICH HALL                                  ,92697,1,8,1,2016,91,5064,1.7,A,5,48,9,0,2015,97.0,4929.0,1.9,A,2014,82.0,4548.0,1.8,A,33.6772,-117.7738,277453.0,1633.0,False,34.4,48.5,51.5,52.8,3.18,95573.0,48.2,48.2,753492.0,2487.0,67.5,64.1,5.7,47.7,2.0,41.8,0.1,0.2,2.9,5.3
1315,CA,California,Los Angeles,Los Angeles,"UNIVERSITY OF CALIFORNIA, LOS ANGELES                            ",405 HILGARD AVENUE                                ,90095,9000,8,1,2016,86,6353,1.3,P,5,30,9,0,2015,125.0,6738.0,1.8,P,2014,145.0,6880.0,2.1,P,34.1139,-118.4068,12815475.0,3295.0,False,35.2,49.5,50.5,38.6,3.63,54501.0,27.0,36.8,549600.0,2085.0,33.1,66.3,8.1,52.2,8.9,11.7,0.7,0.2,22.9,3.5
1316,CA,California,Riverside,Riverside,"UNIVERSITY OF CALIFORNIA, RIVERSIDE                              ",900 UNIVERSITY AVENUE                             ,92521,209,8,1,2016,119,4173,2.8,A,5,44,9,0,2015,124.0,4427.0,2.8,A,2014,130.0,4310.0,3.0,A,33.9381,-117.3948,2084749.0,1557.0,False,31.3,49.5,50.5,41.8,3.93,62460.0,26.2,54.2,318031.0,1556.0,22.5,63.5,9.5,61.9,6.0,7.2,0.8,0.3,18.9,4.8
1319,CA,California,San Francisco,San Francisco,"UNIVERSITY OF CALIFORNIA, SAN FRANCISCO                          ","550 16TH STREET, 7TH FLOOR                        ",94143,402,8,1,2016,3,684,0.4,P,5,8,9,0,2015,4.0,736.0,0.5,P,2014,4.0,565.0,0.7,P,37.7562,-122.443,3603761.0,7286.0,False,38.3,51.0,49.0,39.8,3.15,96265.0,48.8,37.3,927729.0,2435.0,55.8,70.4,5.4,47.2,5.3,34.2,0.4,0.4,7.5,5.1
1320,CA,California,Santa Barbara,Santa Barbara,"UNIVERSITY OF CALIFORNIA, SANTA BARBARA                          ",5221 CHEADLE HALL                                 ,93106,2030,8,1,2016,86,3633,2.3,A,5,23,9,0,2015,89.0,3696.0,2.4,A,2014,86.0,3799.0,2.2,A,34.4285,-119.7202,204034.0,1823.0,False,37.9,50.1,49.9,41.1,3.09,71160.0,35.8,40.7,934308.0,2134.0,48.3,68.8,4.5,77.5,1.4,3.9,0.7,0.2,12.6,3.7
1321,CA,California,Santa Cruz,Santa Cruz,"UNIVERSITY OF CALIFORNIA, SANTA CRUZ                             ",1156 HIGH STREET                                  ,95064,1,8,1,2016,133,3578,3.7,A,5,17,9,0,2015,123.0,3360.0,3.6,A,2014,103.0,3256.0,3.1,A,36.9789,-122.0346,177556.0,1970.0,False,29.3,48.9,51.1,28.6,3.0,65421.0,33.9,47.0,750292.0,2004.0,52.2,61.1,8.3,76.4,1.4,9.6,0.7,0.1,5.5,6.3
1322,CA,California,San Bernardino,Redlands,UNIVERSITY OF REDLANDS                                           ,1200 EAST COLTON AVENUE                           ,92373,999,8,2,2016,50,1544,3.2,A,5,41,9,0,2015,43.0,1548.0,2.7,A,2014,35.0,1508.0,2.3,A,34.0511,-117.1712,71554.0,770.0,False,35.0,47.5,52.5,44.4,3.42,68956.0,33.5,57.5,346582.0,1570.0,38.2,58.3,6.8,71.9,7.5,7.8,0.6,0.4,6.4,5.5
1325,CA,California,San Francisco,San Francisco,UNIVERSITY OF SAN FRANCISCO                                      ,2130 FULTON STREET                                ,94117,1080,8,2,2016,48,2257,2.1,A,5,8,9,0,2015,71.0,2319.0,3.0,A,2014,66.0,2352.0,2.8,A,37.7562,-122.443,3603761.0,7286.0,False,38.3,51.0,49.0,39.8,3.15,96265.0,48.8,37.3,927729.0,2435.0,55.8,70.4,5.4,47.2,5.3,34.2,0.4,0.4,7.5,5.1
1326,CA,California,Santa Clara,Santa Clara,SANTA CLARA UNIVERSITY                                           ,500 EL CAMINO REAL                                ,95053,4956,8,2,2016,10,1252,0.7,P,5,15,9,0,2015,14.0,1404.0,0.9,P,2014,11.0,1292.0,0.8,P,37.3646,-121.96799999999999,127134.0,2667.0,False,33.9,51.6,48.4,51.3,3.28,108609.0,54.3,43.3,831602.0,2376.0,57.0,68.5,4.2,42.1,3.6,41.6,0.3,0.7,6.5,5.2
1328,CA,California,Los Angeles,Los Angeles,UNIVERSITY OF SOUTHERN CALIFORNIA                                ,UNIVERSITY PARK CAMPUS                            ,90089,1,8,2,2016,127,7618,1.6,P,5,33,9,0,2015,140.0,7729.0,1.8,P,2014,149.0,7351.0,2.0,P,34.1139,-118.4068,12815475.0,3295.0,False,35.2,49.5,50.5,38.6,3.63,54501.0,27.0,36.8,549600.0,2085.0,33.1,66.3,8.1,52.2,8.9,11.7,0.7,0.2,22.9,3.5
1329,CA,California,San Joaquin,Stockton,UNIVERSITY OF THE PACIFIC                                        ,3601 PACIFIC AVENUE                               ,95211,197,8,2,2016,36,1642,2.1,P,5,11,9,0,2015,33.0,1694.0,1.9,P,2014,52.0,1778.0,2.9,P,37.9766,-121.3111,394467.0,1943.0,False,32.3,48.9,51.1,42.3,3.76,48396.0,19.9,47.8,218510.0,1310.0,17.4,59.2,11.9,43.9,11.5,21.7,0.6,0.8,11.8,9.7
1335,CA,California,San Bernardino,Victorville,VICTOR VALLEY COMMUNITY COLLEGE                                  ,18422 BEAR VALLEY ROAD                            ,92395,5850,5,1,2016,8,129,6.2,A,5,41,9,0,2015,38.0,253.0,15.0,A,2014,70.0,476.0,14.7,A,34.5277,-117.3536,346948.0,642.0,False,29.6,49.2,50.8,41.8,4.01,47895.0,17.3,53.5,180362.0,1257.0,12.4,54.9,14.2,64.1,16.2,3.7,0.8,0.2,8.4,6.5
1338,CA,California,Santa Clara,Saratoga,WEST VALLEY COLLEGE                                              ,14000 FRUITVALE AVENUE                            ,95070,5697,5,1,2016,8,66,12.1,A,5,14,9,0,2015,8.0,90.0,8.8,A,2014,12.0,108.0,11.1,A,37.2684,-122.0263,30905.0,934.0,False,49.1,49.4,50.6,67.7,3.12,173136.0,71.5,84.4,1933937.0,3284.0,76.8,55.9,4.9,48.2,0.7,46.9,0.5,0.0,0.6,3.1
1339,OR,Oregon,Marion,Salem,CORBAN UNIVERSITY                                                ,5000 DEER PARK DRIVE SOUTH EAST                   ,97317,9392,8,2,2016,13,325,4.0,P,5,5,10,0,2015,9.0,369.0,2.4,P,2014,13.0,384.0,3.3,P,44.9232,-123.0245,259816.0,1347.0,False,35.2,50.1,49.9,44.9,3.26,51666.0,18.6,53.0,201692.0,1212.0,27.1,61.8,6.8,81.0,1.5,2.8,1.1,1.5,5.1,7.0
1341,CA,California,Santa Barbara,Santa Barbara,WESTMONT COLLEGE                                                 ,955 LA PAZ ROAD                                   ,93108,1099,6,2,2016,5,290,1.7,A,5,23,9,0,2015,4.0,296.0,1.3,A,2014,8.0,250.0,3.2,A,34.4285,-119.7202,204034.0,1823.0,False,37.9,50.1,49.9,41.1,3.09,71160.0,35.8,40.7,934308.0,2134.0,48.3,68.8,4.5,77.5,1.4,3.9,0.7,0.2,12.6,3.7
1342,CA,California,Los Angeles,Whittier,WHITTIER COLLEGE                                                 ,13406 EAST PHILADELPHIA STREET                    ,90608,4413,8,2,2016,15,623,2.4,A,3,42,9,0,2015,27.0,731.0,3.6,A,2014,26.0,715.0,3.6,A,33.9678,-118.0188,86838.0,2288.0,False,36.8,48.8,51.2,45.9,3.62,69058.0,33.5,58.1,489310.0,1984.0,24.8,62.9,5.4,54.9,1.6,4.6,0.4,0.1,35.0,3.4
1343,CA,California,Los Angeles,Burbank,WOODBURY UNIVERSITY                                              ,7500 NORTH GLENOAKS BOULEVARD                     ,91504,1052,8,2,2016,18,386,4.6,A,3,27,9,0,2015,25.0,394.0,6.3,A,2014,28.0,447.0,6.2,A,34.1879,-118.3235,104834.0,2337.0,False,39.5,47.9,52.1,46.9,3.22,69118.0,33.7,41.0,645978.0,2202.0,40.3,67.4,7.5,70.7,2.8,11.7,0.5,0.0,9.2,5.0
1344,CA,California,Yuba,Marysville,YUBA COLLEGE                                                     ,2088 NORTH BEALE ROAD                             ,95901,7699,5,1,2016,9,56,16.0,A,5,2,9,0,2015,14.0,93.0,15.0,A,2014,35.0,162.0,21.6,A,39.1518,-121.5836,12413.0,1383.0,False,30.2,50.8,49.2,43.7,3.27,45646.0,9.9,35.7,162618.0,1178.0,17.1,56.9,12.8,78.3,3.3,4.1,1.1,0.0,3.4,9.7
1345,CO,Colorado,Alamosa,Alamosa,ADAMS STATE UNIVERSITY                                           ,208 EDGEMONT BOULEVARD                            ,81102,2373,8,1,2016,106,1092,9.7,A,3,3,8,0,2015,103.0,1056.0,9.7,A,2014,123.0,1132.0,10.8,A,37.4755,-105.87700000000001,10963.0,512.0,False,27.3,48.3,51.7,36.7,3.06,32785.0,9.1,43.1,158256.0,712.0,25.3,59.1,12.4,83.4,4.0,1.7,3.5,0.4,4.3,2.7
1346,CO,Colorado,Arapahoe,Littleton,ARAPAHOE COMMUNITY COLLEGE                                       ,5900 SOUTH SANTA FE DRIVE                         ,80160,9002,6,1,2016,171,1991,8.5,A,5,6,8,0,2015,260.0,2416.0,10.7,A,2014,332.0,2607.0,12.7,A,39.5915,-105.0188,47734.0,1463.0,False,42.2,47.6,52.4,49.9,2.95,71315.0,34.1,60.6,338241.0,1361.0,47.3,69.6,4.3,90.3,2.3,2.1,0.8,0.1,1.6,2.8
1347,CO,Colorado,El Paso,Colorado Springs,COLORADO COLLEGE                                                 ,14 EAST CACHE LA POUDRE                           ,80903,3294,8,2,2016,4,177,2.2,A,5,5,8,0,2015,0.0,230.0,0.0,A,2014,1.0,194.0,0.5,A,38.8674,-104.7606,623946.0,919.0,False,34.6,49.9,50.1,50.2,3.1,58158.0,25.8,58.6,232601.0,1235.0,38.4,67.3,6.9,78.2,6.4,2.9,0.7,0.3,5.9,5.6
1348,CO,Colorado,Jefferson,Golden,COLORADO SCHOOL OF MINES                                         ,1500 ILLINOIS STREET                              ,80401,1887,8,1,2016,11,855,1.2,A,5,7,8,0,2015,12.0,819.0,1.4,A,2014,7.0,861.0,0.8,A,39.7406,-105.2118,20571.0,823.0,False,32.0,57.6,42.4,37.3,2.91,61918.0,33.9,55.4,435847.0,1370.0,55.8,59.9,4.3,90.8,1.6,2.8,0.4,0.0,0.7,3.8
1349,CO,Colorado,Weld,Greeley,UNIVERSITY OF NORTHERN COLORADO                                  ,501 20TH STREET                                   ,80639,1,8,1,2016,167,2942,5.6,A,5,4,8,0,2015,147.0,3089.0,4.7,A,2014,168.0,3292.0,5.1,A,40.4151,-104.7705,133750.0,833.0,False,30.7,49.2,50.8,46.2,3.26,52887.0,19.4,58.3,201215.0,1065.0,25.9,64.0,7.2,84.7,2.2,1.3,1.0,0.0,7.9,2.9
1350,CO,Colorado,Larimer,Fort Collins,COLORADO STATE UNIVERSITY                                        ,102 ADMINISTRATION BUILDING                       ,80523,100,8,1,2016,171,5417,3.1,P,5,4,8,0,2015,155.0,5487.0,2.8,P,2014,164.0,5715.0,2.8,P,40.5475,-105.0651,303184.0,1124.0,False,29.2,50.1,49.9,41.5,2.99,60110.0,27.7,54.4,308510.0,1356.0,53.6,70.0,5.9,89.0,1.6,3.1,0.8,0.1,1.9,3.6
1352,CO,Colorado,Arapahoe,Littleton,DENVER SEMINARY                                                  ,6399 SOUTH SANTA FE DRIVE                         ,80120,2192,8,2,2016,0,189,0.0,A,5,1,8,0,2015,6.0,233.0,2.5,A,2014,4.0,180.0,2.2,A,39.5915,-105.0188,47734.0,1463.0,False,42.2,47.6,52.4,49.9,2.95,71315.0,34.1,60.6,338241.0,1361.0,47.3,69.6,4.3,90.3,2.3,2.1,0.8,0.1,1.6,2.8
1353,CO,Colorado,La Plata,Durango,FORT LEWIS COLLEGE                                               ,1000 RIM DRIVE                                    ,81301,3999,8,1,2016,81,929,8.7,A,5,3,8,0,2015,102.0,996.0,10.2,A,2014,98.0,973.0,10.0,A,37.2744,-107.8703,19662.0,510.0,False,34.3,48.5,51.5,40.3,2.9,60521.0,26.5,54.1,423648.0,1384.0,52.7,68.5,4.9,87.6,0.6,0.9,6.9,0.0,1.4,2.7
1354,CO,Colorado,Denver,Denver,ILIFF SCHOOL OF THEOLOGY                                         ,2201 SOUTH UNIVERSITY BOULEVARD                   ,80210,4798,8,2,2016,4,65,6.1,A,5,1,8,0,2015,3.0,79.0,3.7,A,2014,3.0,74.0,4.0,A,39.7621,-104.8759,2787266.0,1774.0,False,34.4,50.0,50.0,39.2,3.22,60098.0,28.7,50.1,322837.0,1372.0,46.5,71.1,4.5,76.9,9.5,3.6,1.0,0.1,5.5,3.4
1355,CO,Colorado,Prowers,Lamar,LAMAR COMMUNITY COLLEGE                                          ,2401 SOUTH MAIN                                   ,81052,3999,5,1,2016,32,163,19.6,A,5,4,8,0,2015,28.0,158.0,17.7,A,2014,29.0,196.0,14.7,A,38.074,-102.6155,7592.0,565.0,False,35.7,50.2,49.8,47.9,2.9,38136.0,11.2,60.2,84402.0,654.0,15.0,62.6,10.1,94.5,0.7,0.1,0.1,0.0,1.6,3.0
1358,CO,Colorado,Mesa,Grand Junction,COLORADO MESA UNIVERSITY                                         ,1100 NORTH AVENUE                                 ,81501,3122,8,1,2016,251,2427,10.3,A,5,3,8,0,2015,282.0,2623.0,10.7,A,2014,388.0,2827.0,13.7,A,39.0877,-108.5673,136688.0,612.0,False,35.9,48.6,51.4,45.7,2.91,47824.0,17.9,56.4,210369.0,1024.0,32.9,62.9,8.5,92.6,1.1,1.1,0.7,0.3,1.9,2.4
1359,CO,Colorado,Rio Blanco,Rangely,COLORADO NORTHWESTERN COMMUNITY COLLEGE                          ,500 KENNEDY DRIVE                                 ,81648,3598,5,1,2016,23,217,10.5,A,5,3,8,0,2015,22.0,244.0,9.0,A,2014,28.0,225.0,12.4,A,40.0863,-108.7792,2332.0,208.0,False,34.6,50.4,49.6,60.2,3.04,72550.0,28.4,73.5,161690.0,1014.0,24.9,63.6,2.6,96.3,0.0,0.0,0.4,0.0,0.7,2.6
1360,CO,Colorado,Denver,Denver,METROPOLITAN STATE UNIVERSITY OF DENVER                          ,890 AURARIA PARKWAY                               ,80204,3362,8,1,2016,445,5764,7.7,A,5,1,8,0,2015,503.0,6142.0,8.1,A,2014,655.0,6690.0,9.7,A,39.7621,-104.8759,2787266.0,1774.0,False,34.4,50.0,50.0,39.2,3.22,60098.0,28.7,50.1,322837.0,1372.0,46.5,71.1,4.5,76.9,9.5,3.6,1.0,0.1,5.5,3.4
1361,CO,Colorado,Logan,Sterling,NORTHEASTERN JUNIOR COLLEGE                                      ,100 COLLEGE AVENUE                                ,80751,2399,5,1,2016,74,423,17.4,A,5,4,8,0,2015,87.0,506.0,17.1,A,2014,64.0,481.0,13.3,A,40.6207,-103.1919,15199.0,707.0,False,33.9,52.5,47.5,38.1,3.67,38432.0,8.7,48.2,120474.0,677.0,19.2,61.6,8.1,88.9,1.6,1.3,1.2,0.0,0.9,6.1
1362,CO,Colorado,Otero,La Junta,OTERO JUNIOR COLLEGE                                             ,1802 COLORADO AVENUE                              ,81050,3346,5,1,2016,45,257,17.5,A,3,3,8,0,2015,68.0,340.0,20.0,A,2014,56.0,341.0,16.4,A,37.9796,-103.5473,7983.0,883.0,False,38.1,48.3,51.7,47.0,2.88,32437.0,8.1,54.6,89738.0,641.0,19.1,51.2,8.2,85.3,1.1,2.2,0.5,2.3,5.3,3.4
1363,CO,Colorado,Denver,Denver,REGIS UNIVERSITY                                                 ,3333 REGIS BOULEVARD                              ,80221,1099,8,2,2016,97,2575,3.7,P,5,1,8,0,2015,92.0,2860.0,3.2,P,2014,110.0,3134.0,3.5,P,39.7621,-104.8759,2787266.0,1774.0,False,34.4,50.0,50.0,39.2,3.22,60098.0,28.7,50.1,322837.0,1372.0,46.5,71.1,4.5,76.9,9.5,3.6,1.0,0.1,5.5,3.4
1365,CO,Colorado,Pueblo,Pueblo,COLORADO STATE UNIVERSITY-PUEBLO                                 ,2200 BONFORTE BOULEVARD                           ,81001,4901,8,1,2016,112,1442,7.7,A,5,3,8,0,2015,154.0,1750.0,8.8,A,2014,174.0,2105.0,8.2,A,38.2713,-104.6105,142351.0,768.0,False,37.5,49.2,50.8,39.1,3.11,36280.0,10.8,54.7,120872.0,811.0,18.7,54.8,10.3,72.6,2.9,0.8,4.4,0.1,14.6,4.5
1368,CO,Colorado,Las Animas,Trinidad,TRINIDAD STATE JUNIOR COLLEGE                                    ,600 PROSPECT STREET                               ,81082,2396,5,1,2016,38,247,15.3,A,3,3,8,0,2015,43.0,286.0,15.0,A,2014,46.0,332.0,13.8,A,37.175,-104.4908,8148.0,332.0,False,40.3,49.6,50.4,44.7,2.67,37727.0,10.2,56.0,131599.0,711.0,19.1,62.4,9.0,82.9,0.4,1.2,4.0,0.2,5.5,5.7
1370,CO,Colorado,Boulder,Boulder,UNIVERSITY OF COLORADO BOULDER                                   ,REGENT ADMINSTRATIVE CENTER 175    77 UCB         ,80309,77,8,1,2016,143,4351,3.2,P,5,2,8,0,2015,144.0,4515.0,3.1,P,2014,148.0,4676.0,3.1,P,40.0249,-105.2523,126054.0,1573.0,False,28.6,52.1,47.9,32.8,2.84,64183.0,33.5,48.2,600120.0,1560.0,73.8,66.6,5.6,87.9,1.1,5.3,0.3,0.1,1.7,3.5
1371,CO,Colorado,Denver,Denver,UNIVERSITY OF DENVER                                             ,UNIVERSITY PARK CAMPUS             2199 SOUTH UNIV,80208,2000,8,2,2016,47,2606,1.8,P,5,1,8,0,2015,48.0,2761.0,1.7,P,2014,57.0,2771.0,2.0,P,39.7621,-104.8759,2787266.0,1774.0,False,34.4,50.0,50.0,39.2,3.22,60098.0,28.7,50.1,322837.0,1372.0,46.5,71.1,4.5,76.9,9.5,3.6,1.0,0.1,5.5,3.4
1372,CO,Colorado,Gunnison,Gunnison,WESTERN COLORADO UNIVERSITY                                      ,1 WESTERN WAY                                     ,81231,0,8,1,2016,43,549,7.8,A,5,3,8,0,2015,33.0,548.0,6.0,A,2014,37.0,550.0,6.7,A,38.5455,-106.9226,7075.0,606.0,False,25.8,55.6,44.4,25.6,2.86,41510.0,8.8,38.0,205649.0,713.0,48.2,77.0,11.2,96.6,0.8,0.1,0.5,0.0,0.5,1.6
1374,CT,Connecticut,New Haven,New Haven,ALBERTUS MAGNUS COLLEGE                                          ,700 PROSPECT STREET                               ,6511,1189,8,2,2016,63,678,9.2,A,5,3,1,0,2015,58.0,662.0,8.7,A,2014,44.0,664.0,6.6,A,41.3112,-72.9246,568144.0,2706.0,False,30.7,47.3,52.7,26.5,3.44,39191.0,16.3,27.8,189838.0,1585.0,33.9,63.6,10.4,43.0,33.0,4.7,0.3,0.0,15.0,3.9
1378,CT,Connecticut,Hartford,New Britain,CENTRAL CONNECTICUT STATE UNIVERSITY                             ,1615 STANLEY STREET                               ,6050,2490,8,1,2016,171,2774,6.1,A,5,5,1,0,2015,170.0,2818.0,6.0,A,2014,171.0,2795.0,6.1,A,41.6758,-72.7862,72710.0,2102.0,False,34.4,48.3,51.7,36.4,3.13,43611.0,14.4,40.8,156340.0,1282.0,18.4,61.9,8.7,71.1,12.4,3.0,0.1,0.2,9.8,3.5
1379,CT,Connecticut,New London,New London,CONNECTICUT COLLEGE                                              ,270 MOHEGAN AVENUE                                ,6320,4196,8,2,2016,4,265,1.5,A,5,2,1,0,2015,9.0,280.0,3.2,A,2014,3.0,261.0,1.1,A,41.3502,-72.1023,27072.0,1859.0,False,30.9,47.7,52.3,28.6,2.93,37331.0,13.4,36.8,177192.0,1375.0,25.4,66.1,12.2,58.6,15.8,2.5,0.0,0.1,15.2,7.8
1380,CT,Connecticut,Fairfield,Danbury,WESTERN CONNECTICUT STATE UNIVERSITY                             ,181 WHITE STREET                                  ,6810,6826,8,1,2016,106,1436,7.3,A,5,5,1,0,2015,80.0,1369.0,5.8,A,2014,92.0,1442.0,6.3,A,41.4016,-73.471,177177.0,784.0,False,37.6,49.2,50.8,45.6,3.33,68068.0,31.4,59.6,289808.0,1733.0,30.6,71.3,7.5,62.8,7.6,6.1,0.3,0.1,19.6,3.5
1385,CT,Connecticut,Fairfield,Fairfield,FAIRFIELD UNIVERSITY                                             ,1073 NORTH BENSON ROAD                            ,6824,5171,8,2,2016,17,856,1.9,A,5,4,1,0,2015,7.0,848.0,0.8,A,2014,13.0,809.0,1.6,A,41.1775,-73.2733,61611.0,795.0,False,41.2,47.9,52.1,56.7,3.27,127746.0,59.3,82.8,596418.0,2522.0,63.4,63.5,6.0,89.2,1.8,4.5,0.0,0.0,1.3,3.1
1387,CT,Connecticut,Hartford,Hartford,HARTFORD SEMINARY                                                ,77 SHERMAN STREET                                 ,6105,2279,8,2,2016,1,43,2.3,B,5,1,1,1,2015,2.0,40.0,5.0,B,2014,1.0,39.0,2.5,B,41.7661,-72.6834,914751.0,2741.0,False,30.9,48.0,52.0,24.3,3.33,33841.0,10.4,23.8,161698.0,1386.0,16.7,61.5,16.0,33.1,37.9,3.0,0.3,0.0,19.6,6.1
1389,CT,Connecticut,Middlesex,Cromwell,HOLY APOSTLES COLLEGE & SEMINARY                                 ,33 PROSPECT HILL ROAD                             ,6416,2027,8,2,2016,2,34,5.8,A,5,1,1,0,2015,1.0,32.0,3.1,A,2014,1.0,86.0,1.1,B,41.6122,-72.6638,14021.0,434.0,False,43.4,49.7,50.3,50.6,3.03,85856.0,42.8,78.3,245319.0,1627.0,45.6,70.7,3.4,88.5,6.7,2.0,0.0,0.0,1.3,1.4
1392,CT,Connecticut,Hartford,Manchester,MANCHESTER COMMUNITY COLLEGE                                     ,GREAT PATH                                        ,6045,1046,5,1,2016,8,115,6.9,P,5,1,1,0,2015,6.0,138.0,4.3,P,2014,9.0,110.0,8.1,P,41.7753,-72.5242,58172.0,819.0,False,35.4,47.4,52.6,46.2,3.04,67325.0,28.3,56.8,182215.0,1492.0,39.0,70.8,8.3,64.8,14.6,11.2,0.3,0.0,4.2,4.8
1393,CT,Connecticut,New London,New London,MITCHELL COLLEGE                                                 ,437 PEQUOT AVENUE                                 ,6320,4498,6,2,2016,44,236,18.6,A,5,2,1,0,2015,37.0,249.0,14.8,A,2014,26.0,255.0,10.1,A,41.3502,-72.1023,27072.0,1859.0,False,30.9,47.7,52.3,28.6,2.93,37331.0,13.4,36.8,177192.0,1375.0,25.4,66.1,12.2,58.6,15.8,2.5,0.0,0.1,15.2,7.8
1397,CT,Connecticut,New Haven,West Haven,UNIVERSITY OF NEW HAVEN                                          ,300 BOSTON POST ROAD                              ,6516,1999,8,2,2016,81,1722,4.7,P,5,3,1,0,2015,64.0,1554.0,4.1,P,2014,71.0,1868.0,3.8,P,41.2739,-72.9672,54843.0,1969.0,False,35.1,50.5,49.5,34.7,3.4,55299.0,25.6,56.3,193180.0,1658.0,24.1,68.6,10.2,63.6,22.2,3.9,0.2,0.0,5.9,4.1
1398,CT,Connecticut,Litchfield,Winsted,NORTHWESTERN CONNECTICUT COMMUNITY COLLEGE                       ,PARK PLACE EAST                                   ,6098,1747,5,1,2016,2,76,2.6,B,5,1,1,1,2015,0.0,30.0,0.0,A,2014,6.0,60.0,10.0,B,41.9268,-73.0674,7482.0,625.0,False,46.3,49.9,50.1,42.4,3.06,45597.0,14.4,53.5,144853.0,1094.0,18.3,62.4,9.3,88.9,5.8,0.4,1.6,0.0,0.4,2.8
1399,CT,Connecticut,Fairfield,Norwalk,NORWALK COMMUNITY COLLEGE                                        ,188 RICHARDS AVENUE                               ,6854,1655,5,1,2016,4,32,12.5,P,5,4,1,0,2015,3.0,41.0,7.3,P,2014,3.0,35.0,8.5,P,41.1144,-73.4215,89005.0,1501.0,False,39.2,47.7,52.3,48.2,3.23,81546.0,41.5,59.6,421511.0,2245.0,41.1,73.0,8.0,73.2,15.6,5.2,0.5,0.1,3.4,2.1
1401,CT,Connecticut,New Haven,Waterbury,POST UNIVERSITY                                                  ,800 COUNTRY CLUB ROAD                             ,6723,3240,8,3,2016,910,4631,19.6,A,5,5,1,0,2015,920.0,5019.0,18.3,A,2014,790.0,4420.0,17.8,A,41.5583,-73.0361,191484.0,1470.0,False,34.7,48.1,51.9,34.6,3.48,40879.0,14.5,43.3,128425.0,1307.0,15.9,61.2,12.1,63.6,19.6,2.7,0.1,0.1,9.7,4.3
1402,CT,Connecticut,New Haven,Hamden,QUINNIPIAC UNIVERSITY                                            ,275 MOUNT CARMEL AVENUE                           ,6518,1908,8,2,2016,52,1912,2.7,A,5,3,1,0,2015,37.0,1937.0,1.9,A,2014,29.0,1865.0,1.5,A,41.3961,-72.9215,61493.0,727.0,False,37.4,46.0,54.0,43.6,3.15,74281.0,36.3,64.9,224757.0,1742.0,44.9,67.1,5.9,62.7,23.3,5.3,0.2,0.0,5.4,3.0
1403,CT,Connecticut,Fairfield,Fairfield,SACRED HEART UNIVERSITY                                          ,5151 PARK AVENUE                                  ,6825,1000,8,2,2016,66,1998,3.3,P,5,2,1,0,2015,54.0,1544.0,3.4,A,2014,46.0,1461.0,3.1,A,41.1775,-73.2733,61611.0,795.0,False,41.2,47.9,52.1,56.7,3.27,127746.0,59.3,82.8,596418.0,2522.0,63.4,63.5,6.0,89.2,1.8,4.5,0.0,0.0,1.3,3.1
